[{"icao":"NTGA","iata":"AAA","name":"Anaa Airport","city":"","country":"PF","lat":-17.3526000977,"lon":-145.5099945068,"tz":"Pacific/Tahiti"},{"icao":"YARY","iata":"AAB","name":"Arrabury Airport","city":"","country":"AU","lat":-26.7000007629,"lon":141.0500030518,"tz":"Australia/Brisbane"},{"icao":"HEAR","iata":"AAC","name":"El Arish International Airport","city":"El Arish","country":"EG","lat":31.073299408,"lon":33.8358001709,"tz":"Africa/Cairo"},{"icao":"HCAD","iata":"AAD","name":"Adado Airport","city":"Adado","country":"SO","lat":6.095833,"lon":46.6375,"tz":"Africa/Mogadishu"},{"icao":"DABB","iata":"AAE","name":"Annaba Airport","city":"Annabah","country":"DZ","lat":36.8222007751,"lon":7.8091697693,"tz":"Africa/Algiers"},{"icao":"KAAF","iata":"AAF","name":"Apalachicola Regional Airport","city":"Apalachicola","country":"US","lat":29.72750092,"lon":-85.02749634,"tz":"America/New_York"},{"icao":"SSYA","iata":"AAG","name":"Arapoti Airport","city":"Arapoti","country":"BR","lat":-24.1039009094,"lon":-49.789100647,"tz":"America/Sao_Paulo"},{"icao":"EDKA","iata":"AAH","name":"Aachen-Merzbruck Airport","city":"Aachen","country":"DE","lat":50.8230552673,"lon":6.1863889694,"tz":"Europe/Berlin"},{"icao":"SWRA","iata":"AAI","name":"Arraias Airport","city":"Arraias","country":"BR","lat":-13.023888588,"lon":-46.8855552673,"tz":"America/Araguaina"},{"icao":"SMCA","iata":"AAJ","name":"Cayana Airstrip","city":"Awaradam","country":"SR","lat":3.898681,"lon":-55.577907,"tz":"America/Paramaribo"},{"icao":"NGUK","iata":"AAK","name":"Buariki Airport","city":"Buariki","country":"KI","lat":0.1852779984,"lon":173.6369934082,"tz":"Pacific/Tarawa"},{"icao":"EKYT","iata":"AAL","name":"Aalborg Airport","city":"Aalborg","country":"DK","lat":57.0927589138,"lon":9.8492431641,"tz":"Europe/Copenhagen"},{"icao":"FAMD","iata":"AAM","name":"Malamala Airport","city":"Malamala","country":"ZA","lat":-24.8180999756,"lon":31.5445995331,"tz":"Africa/Johannesburg"},{"icao":"OMAL","iata":"AAN","name":"Al Ain International Airport","city":"Al Ain","country":"AE","lat":24.2616996765,"lon":55.6091995239,"tz":"Asia/Dubai"},{"icao":"SVAN","iata":"AAO","name":"Anaco Airport","city":"Anaco","country":"VE","lat":9.4302253723,"lon":-64.4707260132,"tz":"America/Caracas"},{"icao":"WALS","iata":"AAP","name":"Aji Pangeran Tumenggung Pranoto International Airport","city":"Samarinda","country":"ID","lat":-0.373611,"lon":117.255556,"tz":"Asia/Makassar"},{"icao":"URKA","iata":"AAQ","name":"Anapa Airport","city":"Anapa","country":"RU","lat":45.0021018982,"lon":37.3473014832,"tz":"Europe/Moscow"},{"icao":"EKAH","iata":"AAR","name":"Aarhus Airport","city":"Aarhus","country":"DK","lat":56.2999992371,"lon":10.6190004349,"tz":"Europe/Copenhagen"},{"icao":"ZWAT","iata":"AAT","name":"Altay Air Base","city":"Altay","country":"CN","lat":47.7498855591,"lon":88.0858078003,"tz":"Asia/Shanghai"},{"icao":"NSAU","iata":"AAU","name":"Asau Airport","city":"Asau","country":"WS","lat":-13.5058002472,"lon":-172.628005981,"tz":"Pacific/Apia"},{"icao":"RPMA","iata":"AAV","name":"Allah Valley Airport","city":"Surallah","country":"PH","lat":6.3668198586,"lon":124.7509994507,"tz":"Asia/Manila"},{"icao":"OPAB","iata":"AAW","name":"Abbottabad Airport","city":"Abbottabad","country":"PK","lat":34.2000007629,"lon":73.25,"tz":"Asia/Karachi"},{"icao":"SBAX","iata":"AAX","name":"Araxa Airport","city":"Araxa","country":"BR","lat":-19.5631999969,"lon":-46.9603996277,"tz":"America/Sao_Paulo"},{"icao":"OYGD","iata":"AAY","name":"Al Ghaidah International Airport","city":"","country":"YE","lat":16.1916999817,"lon":52.1749992371,"tz":"Asia/Aden"},{"icao":"MGQZ","iata":"AAZ","name":"Quezaltenango Airport","city":"Quezaltenango","country":"GT","lat":14.8655996323,"lon":-91.5019989014,"tz":"America/Guatemala"},{"icao":"UNAA","iata":"ABA","name":"Abakan Airport","city":"Abakan","country":"RU","lat":53.7400016785,"lon":91.3850021362,"tz":"Asia/Krasnoyarsk"},{"icao":"DNAS","iata":"ABB","name":"Asaba International Airport","city":"Asaba","country":"NG","lat":6.2033333333,"lon":6.6588888889,"tz":"Africa/Lagos"},{"icao":"LEAB","iata":"ABC","name":"Albacete-Los Llanos Airport","city":"Albacete","country":"ES","lat":38.9485015869,"lon":-1.8635200262,"tz":"Europe/Madrid"},{"icao":"OIAA","iata":"ABD","name":"Abadan Airport","city":"Abadan","country":"IR","lat":30.371099472,"lon":48.2282981873,"tz":"Asia/Tehran"},{"icao":"KABE","iata":"ABE","name":"Lehigh Valley International Airport","city":"Allentown","country":"US","lat":40.6520996094,"lon":-75.4408035278,"tz":"America/New_York"},{"icao":"NGAB","iata":"ABF","name":"Abaiang Airport","city":"Abaiang","country":"KI","lat":1.798609972,"lon":173.0410003662,"tz":"Pacific/Tarawa"},{"icao":"YABI","iata":"ABG","name":"Abingdon Downs Airport","city":"","country":"AU","lat":-17.6166992188,"lon":143.167007446,"tz":"Australia/Brisbane"},{"icao":"YAPH","iata":"ABH","name":"Alpha Airport","city":"","country":"AU","lat":-23.6460990906,"lon":146.5839996338,"tz":"Australia/Brisbane"},{"icao":"KABI","iata":"ABI","name":"Abilene Regional Airport","city":"Abilene","country":"US","lat":32.4113006592,"lon":-99.6819000244,"tz":"America/Chicago"},{"icao":"DIAP","iata":"ABJ","name":"Port Bouet Airport","city":"Abidjan","country":"CI","lat":5.2613902092,"lon":-3.9262900352,"tz":"Africa/Abidjan"},{"icao":"HAKD","iata":"ABK","name":"Kabri Dehar Airport","city":"Kabri Dehar","country":"ET","lat":6.734000206,"lon":44.2529983521,"tz":"Africa/Addis_Ababa"},{"icao":"PAFM","iata":"ABL","name":"Ambler Airport","city":"Ambler","country":"US","lat":67.106300354,"lon":-157.856994629,"tz":"America/Anchorage"},{"icao":"YBAM","iata":"ABM","name":"Bamaga Injinoo Airport","city":"","country":"AU","lat":-10.950799942,"lon":142.4589996338,"tz":"Australia/Brisbane"},{"icao":"SMBN","iata":"ABN","name":"Albina Airport","city":"Albina","country":"SR","lat":5.512720108,"lon":-54.0500984192,"tz":"America/Cayenne"},{"icao":"DIAO","iata":"ABO","name":"Aboisso Airport","city":"Aboisso","country":"CI","lat":5.461944,"lon":-3.234722,"tz":"Africa/Abidjan"},{"icao":"KABQ","iata":"ABQ","name":"Albuquerque International Sunport Airport","city":"Albuquerque","country":"US","lat":35.0401992798,"lon":-106.6090011597,"tz":"America/Denver"},{"icao":"KABR","iata":"ABR","name":"Aberdeen Regional Airport","city":"Aberdeen","country":"US","lat":45.4491004944,"lon":-98.4217987061,"tz":"America/Chicago"},{"icao":"HEBL","iata":"ABS","name":"Abu Simbel Airport","city":"Abu Simbel","country":"EG","lat":22.3759994507,"lon":31.611700058,"tz":"Africa/Cairo"},{"icao":"OEBA","iata":"ABT","name":"Al Baha Airport","city":"","country":"SA","lat":20.2961006165,"lon":41.6343002319,"tz":"Asia/Riyadh"},{"icao":"WRKA","iata":"ABU","name":"Haliwen Airport","city":"Atambua-Timor Island","country":"ID","lat":-9.0730495453,"lon":124.9049987793,"tz":"Asia/Makassar"},{"icao":"DNAA","iata":"ABV","name":"Nnamdi Azikiwe International Airport","city":"Abuja","country":"NG","lat":9.0067901611,"lon":7.2631697655,"tz":"Africa/Lagos"},{"icao":"YMAY","iata":"ABX","name":"Albury Airport","city":"Albury","country":"AU","lat":-36.0677986145,"lon":146.9579925537,"tz":"Australia/Melbourne"},{"icao":"KABY","iata":"ABY","name":"Southwest Georgia Regional Airport","city":"Albany","country":"US","lat":31.5354995728,"lon":-84.1945037842,"tz":"America/New_York"},{"icao":"EGPD","iata":"ABZ","name":"Aberdeen Dyce Airport","city":"Aberdeen","country":"GB","lat":57.2019004822,"lon":-2.1977798939,"tz":"Europe/London"},{"icao":"MMAA","iata":"ACA","name":"General Juan N Alvarez International Airport","city":"Acapulco","country":"MX","lat":16.7570991516,"lon":-99.7539978027,"tz":"America/Mexico_City"},{"icao":"KACB","iata":"ACB","name":"Antrim County Airport","city":"Bellaire","country":"US","lat":44.9886016846,"lon":-85.1984024048,"tz":"America/Detroit"},{"icao":"DGAA","iata":"ACC","name":"Kotoka International Airport","city":"Accra","country":"GH","lat":5.6051898003,"lon":-0.1667860001,"tz":"Africa/Accra"},{"icao":"SKAD","iata":"ACD","name":"Alcides Fernandez Airport","city":"Acandi","country":"CO","lat":8.51667,"lon":-77.3,"tz":"America/Bogota"},{"icao":"GCRR","iata":"ACE","name":"Lanzarote Airport","city":"Lanzarote Island","country":"ES","lat":28.9454994202,"lon":-13.6051998138,"tz":"Atlantic/Canary"},{"icao":"ZWAL","iata":"ACF","name":"Aral Talim Airport","city":"Aral","country":"CN","lat":40.43579916378331,"lon":81.26411705534605,"tz":"Asia/Shanghai"},{"icao":"LSZR","iata":"ACH","name":"St Gallen Altenrhein Airport","city":"Altenrhein","country":"CH","lat":47.4850006104,"lon":9.5607700348,"tz":"Europe/Vienna"},{"icao":"EGJA","iata":"ACI","name":"Alderney Airport","city":"Saint Anne","country":"GG","lat":49.7061004639,"lon":-2.2147200108,"tz":"Europe/Guernsey"},{"icao":"VCCA","iata":"ACJ","name":"Anuradhapura Air Force Base","city":"Anuradhapura","country":"LK","lat":8.30148983,"lon":80.4279022217,"tz":"Asia/Colombo"},{"icao":"KACK","iata":"ACK","name":"Nantucket Memorial Airport","city":"Nantucket","country":"US","lat":41.25310135,"lon":-70.06020355,"tz":"America/New_York"},{"icao":"MMCC","iata":"ACN","name":"Ciudad Acuna New International Airport","city":"Ciudad Acuna","country":"MX","lat":29.3328990936,"lon":-101.0989990234,"tz":"America/Matamoros"},{"icao":"OITM","iata":"ACP","name":"Sahand Airport","city":"Maragheh","country":"IR","lat":37.3479995728,"lon":46.1278991699,"tz":"Asia/Tehran"},{"icao":"SKAC","iata":"ACR","name":"Araracuara Airport","city":"Araracuara","country":"CO","lat":-0.5833,"lon":-72.4083,"tz":"America/Bogota"},{"icao":"UNKS","iata":"ACS","name":"Achinsk Airport","city":"Achinsk","country":"RU","lat":56.2682991028,"lon":90.5708007813,"tz":"Asia/Krasnoyarsk"},{"icao":"KACT","iata":"ACT","name":"Waco Regional Airport","city":"Waco","country":"US","lat":31.6112995148,"lon":-97.2304992676,"tz":"America/Chicago"},{"icao":"KACV","iata":"ACV","name":"California Redwood Coast-Humboldt County Airport","city":"Arcata/Eureka","country":"US","lat":40.978099823,"lon":-124.1090011597,"tz":"America/Los_Angeles"},{"icao":"ZUYI","iata":"ACX","name":"Xingyi Airport","city":"Xingyi","country":"CN","lat":25.0863888889,"lon":104.959444444,"tz":"Asia/Shanghai"},{"icao":"KACY","iata":"ACY","name":"Atlantic City International Airport","city":"Atlantic City","country":"US","lat":39.4575996399,"lon":-74.5772018433,"tz":"America/New_York"},{"icao":"OIZB","iata":"ACZ","name":"Zabol Airport","city":"","country":"IR","lat":31.0983009338,"lon":61.5438995361,"tz":"Asia/Tehran"},{"icao":"LTAF","iata":"ADA","name":"Adana Airport","city":"Adana","country":"TR","lat":36.9822006226,"lon":35.2803993225,"tz":"Europe/Istanbul"},{"icao":"LTBJ","iata":"ADB","name":"Adnan Menderes International Airport","city":"Izmir","country":"TR","lat":38.2924003601,"lon":27.156999588,"tz":"Europe/Istanbul"},{"icao":"AYAN","iata":"ADC","name":"Andakombe Airport","city":"Andekombe","country":"PG","lat":-7.1372222222,"lon":145.744722222,"tz":"Pacific/Port_Moresby"},{"icao":"HAAB","iata":"ADD","name":"Bole International Airport","city":"Addis Ababa","country":"ET","lat":8.9778900147,"lon":38.7993011475,"tz":"Africa/Addis_Ababa"},{"icao":"OYAA","iata":"ADE","name":"Aden International Airport","city":"Aden","country":"YE","lat":12.8295001984,"lon":45.0288009644,"tz":"Asia/Aden"},{"icao":"LTCP","iata":"ADF","name":"Adiyaman Airport","city":"Adiyaman","country":"TR","lat":37.7313995361,"lon":38.4688987732,"tz":"Europe/Istanbul"},{"icao":"KADG","iata":"ADG","name":"Lenawee County Airport","city":"Adrian","country":"US","lat":41.8676986694,"lon":-84.0773010254,"tz":"America/Detroit"},{"icao":"UEEA","iata":"ADH","name":"Aldan Airport","city":"Aldan","country":"RU","lat":58.6027984619,"lon":125.408996582,"tz":"Asia/Yakutsk"},{"icao":"FYAR","iata":"ADI","name":"Arandis Airport","city":"Arandis","country":"NA","lat":-22.4622001648,"lon":14.9799995422,"tz":"Africa/Windhoek"},{"icao":"OJAM","iata":"ADJ","name":"Amman-Marka International Airport","city":"Amman","country":"JO","lat":31.972700119,"lon":35.9916000366,"tz":"Asia/Amman"},{"icao":"PADK","iata":"ADK","name":"Adak Airport","city":"Adak Island","country":"US","lat":51.8779983521,"lon":-176.6459960938,"tz":"America/Adak"},{"icao":"YPAD","iata":"ADL","name":"Adelaide International Airport","city":"Adelaide","country":"AU","lat":-34.9449996948,"lon":138.5310058594,"tz":"Australia/Adelaide"},{"icao":"KADM","iata":"ADM","name":"Ardmore Municipal Airport","city":"Ardmore","country":"US","lat":34.30301,"lon":-97.0196342,"tz":"America/Chicago"},{"icao":"SKAN","iata":"ADN","name":"Andes Airport","city":"Andes","country":"CO","lat":5.66667,"lon":-75.8833,"tz":"America/Bogota"},{"icao":"YAMK","iata":"ADO","name":"Andamooka Airport","city":"","country":"AU","lat":-30.4382991791,"lon":137.1369934082,"tz":"Australia/Adelaide"},{"icao":"VCCG","iata":"ADP","name":"Ampara Airport","city":"Ampara","country":"LK","lat":7.336944,"lon":81.630278,"tz":"Asia/Colombo"},{"icao":"PADQ","iata":"ADQ","name":"Kodiak Airport","city":"Kodiak","country":"US","lat":57.75,"lon":-152.4940033,"tz":"America/Anchorage"},{"icao":"KPHH","iata":"ADR","name":"Robert F Swinnie Airport","city":"Andrews","country":"US","lat":33.4516983032,"lon":-79.5261993408,"tz":"America/New_York"},{"icao":"KADS","iata":"ADS","name":"Addison Airport","city":"Dallas","country":"US","lat":32.9686012268,"lon":-96.8364028931,"tz":"America/Chicago"},{"icao":"KADH","iata":"ADT","name":"Ada Municipal Airport","city":"Ada","country":"US","lat":34.8042984009,"lon":-96.6713027954,"tz":"America/Chicago"},{"icao":"OITL","iata":"ADU","name":"Ardabil Airport","city":"Ardabil","country":"IR","lat":38.3256988525,"lon":48.4244003296,"tz":"Asia/Tehran"},{"icao":"KADW","iata":"ADW","name":"Andrews Air Force Base","city":"Camp Springs","country":"US","lat":38.810798645,"lon":-76.8669967651,"tz":"America/New_York"},{"icao":"EGQL","iata":"ADX","name":"RAF Leuchars","city":"St. Andrews","country":"GB","lat":56.3728981018,"lon":-2.8684399128,"tz":"Europe/London"},{"icao":"FAAL","iata":"ADY","name":"Alldays Airport","city":"Alldays","country":"ZA","lat":-22.6790008545,"lon":29.0555000305,"tz":"Africa/Johannesburg"},{"icao":"SKSP","iata":"ADZ","name":"Gustavo Rojas Pinilla International Airport","city":"San Andres","country":"CO","lat":12.5836,"lon":-81.7112,"tz":"America/Bogota"},{"icao":"NGTB","iata":"AEA","name":"Abemama Atoll Airport","city":"Abemama Atoll","country":"KI","lat":0.4908330142,"lon":173.828994751,"tz":"Pacific/Tarawa"},{"icao":"ZBGS","iata":"AEB","name":"Tian Yang Air Base","city":"Baise","country":"CN","lat":23.7206001282,"lon":106.959999084,"tz":"Asia/Shanghai"},{"icao":"WIME","iata":"AEG","name":"Aek Godang Airport","city":"Padang Sidempuan","country":"ID","lat":1.400103,"lon":99.430453,"tz":"Asia/Jakarta"},{"icao":"FTTC","iata":"AEH","name":"Abeche Airport","city":"","country":"TD","lat":13.8470001221,"lon":20.8442993164,"tz":"Africa/Ndjamena"},{"icao":"KAEL","iata":"AEL","name":"Albert Lea Municipal Airport","city":"Albert Lea","country":"US","lat":43.68149948,"lon":-93.36720276,"tz":"America/Chicago"},{"icao":"UHTG","iata":"AEM","name":"Amgu Airport","city":"Amgu","country":"RU","lat":45.84126,"lon":137.673568,"tz":"Asia/Vladivostok"},{"icao":"GQNA","iata":"AEO","name":"Aioun el Atrouss Airport","city":"Aioun El Atrouss","country":"MR","lat":16.7112998962,"lon":-9.6378803253,"tz":"Africa/Nouakchott"},{"icao":"SABE","iata":"AEP","name":"Jorge Newbery Airpark","city":"Buenos Aires","country":"AR","lat":-34.5592,"lon":-58.4156,"tz":"America/Argentina/Buenos_Aires"},{"icao":"URSS","iata":"AER","name":"Sochi International Airport","city":"Sochi","country":"RU","lat":43.4499015808,"lon":39.9566001892,"tz":"Europe/Moscow"},{"icao":"ENAL","iata":"AES","name":"Alesund Airport","city":"Alesund","country":"NO","lat":62.5625,"lon":6.119699955,"tz":"Europe/Oslo"},{"icao":"PFAL","iata":"AET","name":"Allakaket Airport","city":"Allakaket","country":"US","lat":66.5518035889,"lon":-152.621994019,"tz":"America/Anchorage"},{"icao":"OIBA","iata":"AEU","name":"Abumusa Island Airport","city":"","country":"IR","lat":25.8756999969,"lon":55.033000946,"tz":"Asia/Tehran"},{"icao":"KAEX","iata":"AEX","name":"Alexandria International Airport","city":"Alexandria","country":"US","lat":31.3274002075,"lon":-92.5497970581,"tz":"America/Chicago"},{"icao":"BIAR","iata":"AEY","name":"Akureyri Airport","city":"Akureyri","country":"IS","lat":65.6600036621,"lon":-18.0727005005,"tz":"Atlantic/Reykjavik"},{"icao":"SAMR","iata":"AFA","name":"Suboficial Ay Santiago Germano Airport","city":"San Rafael","country":"AR","lat":-34.5882987976,"lon":-68.4039001465,"tz":"America/Argentina/Mendoza"},{"icao":"FAPA","iata":"AFD","name":"Port Alfred Airport","city":"Port Alfred","country":"ZA","lat":-33.5541992188,"lon":26.8777008057,"tz":"Africa/Johannesburg"},{"icao":"PAFE","iata":"AFE","name":"Kake Airport","city":"Kake","country":"US","lat":56.9613990784,"lon":-133.9100036621,"tz":"America/Sitka"},{"icao":"KAFF","iata":"AFF","name":"USAF Academy Airfield","city":"Colorado Springs","country":"US","lat":38.96969986,"lon":-104.8130035,"tz":"America/Denver"},{"icao":"SKAM","iata":"AFI","name":"Amalfi Airport","city":"Amalfi","country":"CO","lat":6.91667,"lon":-75.0667,"tz":"America/Bogota"},{"icao":"SBAT","iata":"AFL","name":"Alta Floresta Airport","city":"Alta Floresta","country":"BR","lat":-9.8663892746,"lon":-56.1049995422,"tz":"America/Cuiaba"},{"icao":"KAFN","iata":"AFN","name":"Jaffrey Airport Silver Ranch Airport","city":"Jaffrey","country":"US","lat":42.8050994873,"lon":-72.0029983521,"tz":"America/New_York"},{"icao":"KAFO","iata":"AFO","name":"Afton Municipal Airport","city":"Afton","country":"US","lat":42.7112007141,"lon":-110.942001343,"tz":"America/Denver"},{"icao":"AYAF","iata":"AFR","name":"Afore Airstrip","city":"Afore","country":"PG","lat":-9.14222,"lon":148.39083,"tz":"Pacific/Port_Moresby"},{"icao":"UZSN","iata":"AFS","name":"Sugraly Airport","city":"Zarafshan","country":"UZ","lat":41.613899231,"lon":64.2332000732,"tz":"Asia/Samarkand"},{"icao":"AGAF","iata":"AFT","name":"Afutara Aerodrome","city":"Bila","country":"SB","lat":-9.1913888889,"lon":160.948611111,"tz":"Pacific/Guadalcanal"},{"icao":"KAFW","iata":"AFW","name":"Fort Worth Alliance Airport","city":"Fort Worth","country":"US","lat":32.9875984192,"lon":-97.3188018799,"tz":"America/Chicago"},{"icao":"LTAH","iata":"AFY","name":"Afyon Airport","city":"Afyonkarahisar","country":"TR","lat":38.726398468,"lon":30.6011009216,"tz":"Europe/Istanbul"},{"icao":"OIMS","iata":"AFZ","name":"Sabzevar National Airport","city":"Sabzevar","country":"IR","lat":36.1680984497,"lon":57.595199585,"tz":"Asia/Tehran"},{"icao":"GMAD","iata":"AGA","name":"Al Massira Airport","city":"Agadir","country":"MA","lat":30.3250007629,"lon":-9.413069725,"tz":"Africa/Casablanca"},{"icao":"EDMA","iata":"AGB","name":"Augsburg Airport","city":"Augsburg","country":"DE","lat":48.42527771,"lon":10.9316673279,"tz":"Europe/Berlin"},{"icao":"KAGC","iata":"AGC","name":"Allegheny County Airport","city":"Pittsburgh","country":"US","lat":40.3544006348,"lon":-79.9301986694,"tz":"America/New_York"},{"icao":"EDWG","iata":"AGE","name":"Wangerooge Airport","city":"Wangerooge","country":"DE","lat":53.7827796936,"lon":7.9138889313,"tz":"Europe/Berlin"},{"icao":"LFBA","iata":"AGF","name":"Agen-La Garenne Airport","city":"Agen/La Garenne","country":"FR","lat":44.1747016907,"lon":0.5905560255,"tz":"Europe/Paris"},{"icao":"ESTA","iata":"AGH","name":"Angelholm-Helsingborg Airport","city":"Angelholm","country":"SE","lat":56.2961006165,"lon":12.8471002579,"tz":"Europe/Stockholm"},{"icao":"SMWA","iata":"AGI","name":"Wageningen Airport Airport","city":"Wageningen Airport","country":"SR","lat":5.7666668892,"lon":-56.6333312988,"tz":"America/Paramaribo"},{"icao":"RORA","iata":"AGJ","name":"Aguni Airport","city":"Aguni","country":"JP","lat":26.5925006866,"lon":127.2409973145,"tz":"Asia/Tokyo"},{"icao":"AYWG","iata":"AGL","name":"Wanigela Airport","city":"","country":"PG","lat":-9.3375,"lon":149.155555556,"tz":"Pacific/Port_Moresby"},{"icao":"PAGN","iata":"AGN","name":"Angoon Seaplane Base","city":"Angoon","country":"US","lat":57.503611,"lon":-134.585,"tz":"America/Juneau"},{"icao":"KAGO","iata":"AGO","name":"Magnolia Municipal Airport","city":"Magnolia","country":"US","lat":33.22800064,"lon":-93.21700287,"tz":"America/Chicago"},{"icao":"LEMG","iata":"AGP","name":"Malaga Airport","city":"Malaga","country":"ES","lat":36.6749000549,"lon":-4.4991102219,"tz":"Europe/Madrid"},{"icao":"LGAG","iata":"AGQ","name":"Agrinion Airport","city":"Agrinion","country":"GR","lat":38.6020011902,"lon":21.3512001038,"tz":"Europe/Athens"},{"icao":"VIAG","iata":"AGR","name":"Agra Airport","city":"","country":"IN","lat":27.1557998657,"lon":77.960899353,"tz":"Asia/Kolkata"},{"icao":"KAGS","iata":"AGS","name":"Augusta Regional At Bush Field","city":"Augusta","country":"US","lat":33.3698997498,"lon":-81.9645004272,"tz":"America/New_York"},{"icao":"SGES","iata":"AGT","name":"Guarani International Airport","city":"Ciudad del Este","country":"PY","lat":-25.4599990845,"lon":-54.8400001526,"tz":"America/Asuncion"},{"icao":"MMAS","iata":"AGU","name":"Jesus Teran International Airport","city":"Aguascalientes","country":"MX","lat":21.7056007385,"lon":-102.318000793,"tz":"America/Mexico_City"},{"icao":"SVAC","iata":"AGV","name":"Oswaldo Guevara Mujica Airport","city":"Acarigua","country":"VE","lat":9.5533752441,"lon":-69.2378692627,"tz":"America/Caracas"},{"icao":"VOAT","iata":"AGX","name":"Agatti Airport","city":"","country":"IN","lat":10.8236999512,"lon":72.1760025024,"tz":"Asia/Kolkata"},{"icao":"FAAG","iata":"AGZ","name":"Aggeneys Airport","city":"Aggeneys","country":"ZA","lat":-29.2817993164,"lon":18.8138999939,"tz":"Africa/Johannesburg"},{"icao":"OEAB","iata":"AHB","name":"Abha Regional Airport","city":"Abha","country":"SA","lat":18.2404003143,"lon":42.6566009521,"tz":"Asia/Riyadh"},{"icao":"KAHC","iata":"AHC","name":"Amedee Army Air Field","city":"Herlong","country":"US","lat":40.26620102,"lon":-120.1529999,"tz":"America/Los_Angeles"},{"icao":"NTHE","iata":"AHE","name":"Ahe Airport","city":"Ahe Atoll","country":"PF","lat":-14.4280996323,"lon":-146.2570037842,"tz":"Pacific/Tahiti"},{"icao":"K37V","iata":"AHF","name":"Arapahoe Municipal Airport","city":"Arapahoe","country":"US","lat":40.34158333,"lon":-99.90780555,"tz":"America/Chicago"},{"icao":"KAHH","iata":"AHH","name":"Amery Municipal Airport","city":"Amery","country":"US","lat":45.2811012268,"lon":-92.3753967285,"tz":"America/Chicago"},{"icao":"WAPA","iata":"AHI","name":"Amahai Airport","city":"Amahai-Seram Island","country":"ID","lat":-3.3480000496,"lon":128.925994873,"tz":"Asia/Jayapura"},{"icao":"ZUHY","iata":"AHJ","name":"Ngawa Hongyuan Airport","city":"Hongyuan","country":"CN","lat":32.529167,"lon":102.356944,"tz":"Asia/Shanghai"},{"icao":"SYAH","iata":"AHL","name":"Aishalton Airport","city":"Aishalton","country":"GY","lat":2.4865300655,"lon":-59.3134002686,"tz":"America/Guyana"},{"icao":"KS03","iata":"AHM","name":"Ashland Municipal Sumner Parker Field","city":"Ashland","country":"US","lat":42.1902999878,"lon":-122.661003113,"tz":"America/Los_Angeles"},{"icao":"KAHN","iata":"AHN","name":"Athens Ben Epps Airport","city":"Athens","country":"US","lat":33.948600769,"lon":-83.3263015747,"tz":"America/New_York"},{"icao":"LIEA","iata":"AHO","name":"Alghero / Fertilia Airport","city":"Alghero","country":"IT","lat":40.6320991516,"lon":8.290769577,"tz":"Europe/Rome"},{"icao":"MHAH","iata":"AHS","name":"Ahuas Airport","city":"Ahuas","country":"HN","lat":15.4722003937,"lon":-84.3522033691,"tz":"America/Tegucigalpa"},{"icao":"GMTA","iata":"AHU","name":"Cherif Al Idrissi Airport","city":"Al Hoceima","country":"MA","lat":35.1771011353,"lon":-3.8395199776,"tz":"Africa/Casablanca"},{"icao":"LFHU","iata":"AHZ","name":"L'alpe D'huez Airport","city":"Bourg","country":"FR","lat":45.0882987976,"lon":6.0847201347,"tz":"Europe/Paris"},{"icao":"KAIA","iata":"AIA","name":"Alliance Municipal Airport","city":"Alliance","country":"US","lat":42.0531997681,"lon":-102.804000854,"tz":"America/Denver"},{"icao":"KAID","iata":"AID","name":"Anderson Municipal Darlington Field","city":"Anderson","country":"US","lat":40.1086006165,"lon":-85.6129989624,"tz":"America/Indiana/Indianapolis"},{"icao":"AYAO","iata":"AIE","name":"Aiome Airport","city":"Aiome","country":"PG","lat":-5.145699978,"lon":144.7307003,"tz":"Pacific/Port_Moresby"},{"icao":"SBAS","iata":"AIF","name":"Marcelo Pires Halzhausen Airport","city":"Assis","country":"BR","lat":-22.64,"lon":-50.453056,"tz":"America/Sao_Paulo"},{"icao":"FEFY","iata":"AIG","name":"Yalinga Airport","city":"Yalinga","country":"CF","lat":6.5199999809,"lon":23.2600002289,"tz":"Africa/Bangui"},{"icao":"HDAS","iata":"AII","name":"Ali-Sabieh Airport","city":"Ali-Sabieh","country":"DJ","lat":11.1468888889,"lon":42.72,"tz":"Africa/Djibouti"},{"icao":"KAIK","iata":"AIK","name":"Aiken Municipal Airport","city":"Aiken","country":"US","lat":33.6493988037,"lon":-81.6849975586,"tz":"America/New_York"},{"icao":"PAWI","iata":"AIN","name":"Wainwright Airport","city":"Wainwright","country":"US","lat":70.6380004883,"lon":-159.994995117,"tz":"America/Anchorage"},{"icao":"KAIO","iata":"AIO","name":"Atlantic Municipal Airport","city":"Atlantic","country":"US","lat":41.40729904,"lon":-95.04689789,"tz":"America/Chicago"},{"icao":"VIAX","iata":"AIP","name":"Adampur Air Force Station","city":"","country":"IN","lat":31.4337997437,"lon":75.7587966919,"tz":"Asia/Kolkata"},{"icao":"SSOU","iata":"AIR","name":"Aripuanã Airport","city":"Aripuanã","country":"BR","lat":-10.185556,"lon":-59.457778,"tz":"America/Cuiaba"},{"icao":"NGTR","iata":"AIS","name":"Arorae Island Airport","city":"Arorae Island","country":"KI","lat":-2.6161100864,"lon":176.8029937744,"tz":"Pacific/Tarawa"},{"icao":"NCAI","iata":"AIT","name":"Aitutaki Airport","city":"Aitutaki","country":"CK","lat":-18.8309001923,"lon":-159.7640075684,"tz":"Pacific/Rarotonga"},{"icao":"NCAT","iata":"AIU","name":"Enua Airport","city":"Atiu Island","country":"CK","lat":-19.9678001404,"lon":-158.1190032959,"tz":"Pacific/Rarotonga"},{"icao":"KAIV","iata":"AIV","name":"George Downer Airport","city":"Aliceville","country":"US","lat":33.1064987183,"lon":-88.1977996826,"tz":"America/Chicago"},{"icao":"KAIZ","iata":"AIZ","name":"Lee C Fine Memorial Airport","city":"Kaiser Lake Ozark","country":"US","lat":38.0960006714,"lon":-92.5494995117,"tz":"America/Chicago"},{"icao":"LFKJ","iata":"AJA","name":"Ajaccio-Napoleon Bonaparte Airport","city":"Ajaccio/Napoleon Bonaparte","country":"FR","lat":41.9235992432,"lon":8.8029203415,"tz":"Europe/Paris"},{"icao":"OESK","iata":"AJF","name":"Al-Jawf Domestic Airport","city":"Al-Jawf","country":"SA","lat":29.7851009369,"lon":40.0999984741,"tz":"Asia/Riyadh"},{"icao":"LTCO","iata":"AJI","name":"Agri Airport","city":"Agri","country":"TR","lat":39.6545410156,"lon":43.0259780884,"tz":"Europe/Istanbul"},{"icao":"GQNJ","iata":"AJJ","name":"Akjoujt Airport","city":"Akjoujt","country":"MR","lat":19.7330169678,"lon":-14.3832492828,"tz":"Africa/Nouakchott"},{"icao":"OIHR","iata":"AJK","name":"Arak Airport","city":"Araak","country":"IR","lat":34.1380996704,"lon":49.8473014832,"tz":"Asia/Tehran"},{"icao":"VELP","iata":"AJL","name":"Lengpui Airport","city":"Aizawl","country":"IN","lat":23.8405990601,"lon":92.6196975708,"tz":"Asia/Kolkata"},{"icao":"FMCV","iata":"AJN","name":"Ouani Airport","city":"Ouani","country":"KM","lat":-12.1316995621,"lon":44.4303016663,"tz":"Indian/Comoro"},{"icao":"ESNX","iata":"AJR","name":"Arvidsjaur Airport","city":"Arvidsjaur","country":"SE","lat":65.5903015137,"lon":19.2819004059,"tz":"Europe/Stockholm"},{"icao":"SBAR","iata":"AJU","name":"Santa Maria Airport","city":"Aracaju","country":"BR","lat":-10.984000206,"lon":-37.0703010559,"tz":"America/Maceio"},{"icao":"DRZA","iata":"AJY","name":"Mano Dayak International Airport","city":"Agadez","country":"NE","lat":16.9659996033,"lon":8.0001096725,"tz":"Africa/Niamey"},{"icao":"ZLAK","iata":"AKA","name":"Ankang Airport","city":"Ankang","country":"CN","lat":32.7080993652,"lon":108.9309997559,"tz":"Asia/Shanghai"},{"icao":"PAAK","iata":"AKB","name":"Atka Airport","city":"Atka","country":"US","lat":52.22029877,"lon":-174.2059937,"tz":"America/Adak"},{"icao":"KAKR","iata":"AKC","name":"Akron Fulton International Airport","city":"Akron","country":"US","lat":41.0374984741,"lon":-81.4669036865,"tz":"America/New_York"},{"icao":"VAAK","iata":"AKD","name":"Akola Airport","city":"","country":"IN","lat":20.6989994049,"lon":77.0586013794,"tz":"Asia/Kolkata"},{"icao":"FOGA","iata":"AKE","name":"Akiéni Airport","city":"Akiéni","country":"GA","lat":-1.133333,"lon":13.9,"tz":"Africa/Libreville"},{"icao":"HLKF","iata":"AKF","name":"Kufra Airport","city":"Kufra","country":"LY","lat":24.1786994934,"lon":23.313999176,"tz":"Africa/Tripoli"},{"icao":"OEPS","iata":"AKH","name":"Prince Sultan Air Base","city":"","country":"SA","lat":24.0627002716,"lon":47.5805015564,"tz":"Asia/Riyadh"},{"icao":"PFAK","iata":"AKI","name":"Akiak Airport","city":"Akiak","country":"US","lat":60.9029006958,"lon":-161.231002808,"tz":"America/Anchorage"},{"icao":"RJEC","iata":"AKJ","name":"Asahikawa Airport","city":"Asahikawa","country":"JP","lat":43.6707992554,"lon":142.4470062256,"tz":"Asia/Tokyo"},{"icao":"PAKH","iata":"AKK","name":"Akhiok Airport","city":"Akhiok","country":"US","lat":56.9387016296,"lon":-154.182998657,"tz":"America/Anchorage"},{"icao":"NZAA","iata":"AKL","name":"Auckland International Airport","city":"Auckland","country":"NZ","lat":-37.0080986023,"lon":174.7920074463,"tz":"Pacific/Auckland"},{"icao":"PAKN","iata":"AKN","name":"King Salmon Airport","city":"King Salmon","country":"US","lat":58.67679977,"lon":-156.6490021,"tz":"America/Anchorage"},{"icao":"KAKO","iata":"AKO","name":"Colorado Plains Regional Airport","city":"Akron","country":"US","lat":40.1755981445,"lon":-103.222000122,"tz":"America/Denver"},{"icao":"PAKP","iata":"AKP","name":"Anaktuvuk Pass Airport","city":"Anaktuvuk Pass","country":"US","lat":68.13359833,"lon":-151.7429962,"tz":"America/Anchorage"},{"icao":"WIAG","iata":"AKQ","name":"Menggala Airport","city":"Menggala-Sumatra Island","country":"ID","lat":-4.4894399643,"lon":105.2170028687,"tz":"Asia/Jakarta"},{"icao":"DNAK","iata":"AKR","name":"Akure Airport","city":"Akure","country":"NG","lat":7.2467398643,"lon":5.3010101318,"tz":"Africa/Lagos"},{"icao":"AGGA","iata":"AKS","name":"Auki Airport","city":"Auki","country":"SB","lat":-8.7025699616,"lon":160.682006836,"tz":"Pacific/Guadalcanal"},{"icao":"LCRA","iata":"AKT","name":"RAF Akrotiri","city":"","country":"CY","lat":34.5904006958,"lon":32.9878997803,"tz":"Asia/Nicosia"},{"icao":"ZWAK","iata":"AKU","name":"Aksu Airport","city":"Aksu","country":"CN","lat":41.2625007629,"lon":80.2917022705,"tz":"Asia/Shanghai"},{"icao":"CYKO","iata":"AKV","name":"Akulivik Airport","city":"Akulivik","country":"CA","lat":60.8185997009,"lon":-78.1485977173,"tz":"America/Iqaluit"},{"icao":"OIAG","iata":"AKW","name":"Aghajari Airport","city":"Omidiyeh","country":"IR","lat":30.7444000244,"lon":49.6772003174,"tz":"Asia/Tehran"},{"icao":"UATT","iata":"AKX","name":"Aktobe Airport","city":"Aktyubinsk","country":"KZ","lat":50.2458000183,"lon":57.2066993713,"tz":"Asia/Aqtobe"},{"icao":"VYSW","iata":"AKY","name":"Sittwe Airport","city":"Sittwe","country":"MM","lat":20.1326999664,"lon":92.8725967407,"tz":"Asia/Yangon"},{"icao":"UAAA","iata":"ALA","name":"Almaty Airport","city":"Almaty","country":"KZ","lat":43.3521003723,"lon":77.0404968262,"tz":"Asia/Almaty"},{"icao":"KALB","iata":"ALB","name":"Albany International Airport","city":"Albany","country":"US","lat":42.748298645,"lon":-73.8016967773,"tz":"America/New_York"},{"icao":"LEAL","iata":"ALC","name":"Alicante International Airport","city":"Alicante","country":"ES","lat":38.2821998596,"lon":-0.5581560135,"tz":"Europe/Madrid"},{"icao":"SPAR","iata":"ALD","name":"Alerta Airport","city":"Fortaleza","country":"PE","lat":-11.6829996109,"lon":-69.3330001831,"tz":"America/Lima"},{"icao":"ENAT","iata":"ALF","name":"Alta Airport","city":"Alta","country":"NO","lat":69.9760971069,"lon":23.3717002869,"tz":"Europe/Oslo"},{"icao":"DAAG","iata":"ALG","name":"Houari Boumediene Airport","city":"Algiers","country":"DZ","lat":36.6910018921,"lon":3.2154099941,"tz":"Africa/Algiers"},{"icao":"YABA","iata":"ALH","name":"Albany Airport","city":"Albany","country":"AU","lat":-34.9432983398,"lon":117.8089981079,"tz":"Australia/Perth"},{"icao":"KALI","iata":"ALI","name":"Alice International Airport","city":"Alice","country":"US","lat":27.7409000397,"lon":-98.0269012451,"tz":"America/Chicago"},{"icao":"FAAB","iata":"ALJ","name":"Alexander Bay Airport","city":"Alexander Bay","country":"ZA","lat":-28.5750007629,"lon":16.5333003998,"tz":"Africa/Johannesburg"},{"icao":"LIMG","iata":"ALL","name":"Villanova D'Albenga International Airport","city":"Albenga","country":"IT","lat":44.0505981445,"lon":8.1274299622,"tz":"Europe/Rome"},{"icao":"KALM","iata":"ALM","name":"Alamogordo White Sands Regional Airport","city":"Alamogordo","country":"US","lat":32.8399009705,"lon":-105.9909973145,"tz":"America/Denver"},{"icao":"KALN","iata":"ALN","name":"St Louis Regional Airport","city":"Alton/St Louis","country":"US","lat":38.8903007507,"lon":-90.0459976196,"tz":"America/Chicago"},{"icao":"KALO","iata":"ALO","name":"Waterloo Regional Airport","city":"Waterloo","country":"US","lat":42.5570983887,"lon":-92.4002990723,"tz":"America/Chicago"},{"icao":"OSAP","iata":"ALP","name":"Aleppo International Airport","city":"Aleppo","country":"SY","lat":36.1806983948,"lon":37.2243995667,"tz":"Asia/Damascus"},{"icao":"SSLT","iata":"ALQ","name":"Alegrete Novo Airport","city":"Alegrete","country":"BR","lat":-29.8127002716,"lon":-55.8933982849,"tz":"America/Sao_Paulo"},{"icao":"NZLX","iata":"ALR","name":"Alexandra Airport","city":"Alexandra","country":"NZ","lat":-45.2117004395,"lon":169.3730010986,"tz":"Pacific/Auckland"},{"icao":"KALS","iata":"ALS","name":"San Luis Valley Regional Bergman Field","city":"Alamosa","country":"US","lat":37.4348983765,"lon":-105.866996765,"tz":"America/Denver"},{"icao":"SDWQ","iata":"ALT","name":"Alenquer Airport","city":"Alenquer","country":"BR","lat":-1.916944,"lon":-54.722778,"tz":"America/Santarem"},{"icao":"HCMA","iata":"ALU","name":"Alula Airport","city":"Alula","country":"SO","lat":11.9582,"lon":50.748,"tz":"Africa/Mogadishu"},{"icao":"KALW","iata":"ALW","name":"Walla Walla Regional Airport","city":"Walla Walla","country":"US","lat":46.09489822,"lon":-118.288002,"tz":"America/Los_Angeles"},{"icao":"KALX","iata":"ALX","name":"Thomas C Russell Field","city":"Alexander City","country":"US","lat":32.9146995544,"lon":-85.9629974365,"tz":"America/Chicago"},{"icao":"HEAX","iata":"ALY","name":"El Nouzha Airport","city":"Alexandria","country":"EG","lat":31.1839008331,"lon":29.9489002228,"tz":"Africa/Cairo"},{"icao":"KAMA","iata":"AMA","name":"Rick Husband Amarillo International Airport","city":"Amarillo","country":"US","lat":35.2193984985,"lon":-101.7060012817,"tz":"America/Chicago"},{"icao":"FMNE","iata":"AMB","name":"Ambilobe Airport","city":"","country":"MG","lat":-13.1884002686,"lon":48.9879989624,"tz":"Indian/Antananarivo"},{"icao":"FTTN","iata":"AMC","name":"Am Timan Airport","city":"Am Timan","country":"TD","lat":11.0340003967,"lon":20.2740001678,"tz":"Africa/Ndjamena"},{"icao":"VAAH","iata":"AMD","name":"Sardar Vallabhbhai Patel International Airport","city":"Ahmedabad","country":"IN","lat":23.0771999359,"lon":72.6346969604,"tz":"Asia/Kolkata"},{"icao":"HAAM","iata":"AMH","name":"Arba Minch Airport","city":"","country":"ET","lat":6.0393900871,"lon":37.5904998779,"tz":"Africa/Addis_Ababa"},{"icao":"WADA","iata":"AMI","name":"Selaparang Airport","city":"Mataram-Lombok Island","country":"ID","lat":-8.5607099533,"lon":116.095001221,"tz":"Asia/Makassar"},{"icao":"SNAR","iata":"AMJ","name":"Cirilo Queiroz Airport","city":"Almenara","country":"BR","lat":-16.18389,"lon":-40.66722,"tz":"America/Sao_Paulo"},{"icao":"K00C","iata":"AMK","name":"Animas Air Park","city":"Durango","country":"US","lat":37.2032012939,"lon":-107.869003296,"tz":"America/Denver"},{"icao":"OJAI","iata":"AMM","name":"Queen Alia International Airport","city":"Amman","country":"JO","lat":31.7226009369,"lon":35.9931983948,"tz":"Asia/Amman"},{"icao":"KAMN","iata":"AMN","name":"Gratiot Community Airport","city":"Alma","country":"US","lat":43.322101593,"lon":-84.68800354,"tz":"America/Detroit"},{"icao":"FTTU","iata":"AMO","name":"Mao Airport","city":"Mao","country":"TD","lat":14.1456003189,"lon":15.3143997192,"tz":"Africa/Ndjamena"},{"icao":"FMSY","iata":"AMP","name":"Ampanihy Airport","city":"Ampanihy","country":"MG","lat":-24.6996994019,"lon":44.7341995239,"tz":"Indian/Antananarivo"},{"icao":"WAPP","iata":"AMQ","name":"Pattimura Airport Ambon","city":"Ambon","country":"ID","lat":-3.7102599144,"lon":128.0890045166,"tz":"Asia/Jayapura"},{"icao":"EHAM","iata":"AMS","name":"Amsterdam Airport Schiphol","city":"Amsterdam","country":"NL","lat":52.3086013794,"lon":4.7638897896,"tz":"Europe/Amsterdam"},{"icao":"YAMT","iata":"AMT","name":"Amata Airport","city":"","country":"AU","lat":-26.1082992554,"lon":131.2070007324,"tz":"Australia/Adelaide"},{"icao":"AYAM","iata":"AMU","name":"Amanab Airport","city":"Amanab","country":"PG","lat":-3.586,"lon":141.214333333,"tz":"Pacific/Port_Moresby"},{"icao":"ULDD","iata":"AMV","name":"Amderma Airport","city":"Amderma","country":"RU","lat":69.7632980347,"lon":61.5564002991,"tz":"Europe/Moscow"},{"icao":"KAMW","iata":"AMW","name":"Ames Municipal Airport","city":"Ames","country":"US","lat":41.99200058,"lon":-93.62180328,"tz":"America/Chicago"},{"icao":"YAMM","iata":"AMX","name":"Ammaroo Airport","city":"","country":"AU","lat":-21.7383003235,"lon":135.2420043945,"tz":"Australia/Darwin"},{"icao":"NZAR","iata":"AMZ","name":"Ardmore Airport","city":"Manurewa","country":"NZ","lat":-37.0297012329,"lon":174.9730072021,"tz":"Pacific/Auckland"},{"icao":"KANB","iata":"ANB","name":"Anniston Metropolitan Airport","city":"Anniston","country":"US","lat":33.58819962,"lon":-85.85810089,"tz":"America/Chicago"},{"icao":"PANC","iata":"ANC","name":"Ted Stevens Anchorage International Airport","city":"Anchorage","country":"US","lat":61.1744003296,"lon":-149.9960021973,"tz":"America/Anchorage"},{"icao":"KAND","iata":"AND","name":"Anderson Regional Airport","city":"Anderson","country":"US","lat":34.4945983887,"lon":-82.7093963623,"tz":"America/New_York"},{"icao":"LFJR","iata":"ANE","name":"Angers-Loire Airport","city":"Angers/Marce","country":"FR","lat":47.5602989197,"lon":-0.3122220039,"tz":"Europe/Paris"},{"icao":"SCFA","iata":"ANF","name":"Cerro Moreno Airport","city":"Antofagasta","country":"CL","lat":-23.4444999695,"lon":-70.445098877,"tz":"America/Santiago"},{"icao":"LFBU","iata":"ANG","name":"Angouleme-Brie-Champniers Airport","city":"Angouleme/Brie/Champniers","country":"FR","lat":45.7291984558,"lon":0.2214560062,"tz":"Europe/Paris"},{"icao":"PANI","iata":"ANI","name":"Aniak Airport","city":"Aniak","country":"US","lat":61.5816001892,"lon":-159.5429992676,"tz":"America/Anchorage"},{"icao":"FCBZ","iata":"ANJ","name":"Zanaga Airport","city":"Zanaga","country":"CG","lat":-2.8499999046,"lon":13.8170003891,"tz":"Africa/Brazzaville"},{"icao":"LTAD","iata":"ANK","name":"Etimesgut Air Base","city":"Ankara","country":"TR","lat":39.949798584,"lon":32.6885986328,"tz":"Europe/Istanbul"},{"icao":"FMNH","iata":"ANM","name":"Antsirabato Airport","city":"","country":"MG","lat":-14.9994001389,"lon":50.3202018738,"tz":"Indian/Antananarivo"},{"icao":"PANT","iata":"ANN","name":"Annette Island Airport","city":"Annette","country":"US","lat":55.0424003601,"lon":-131.5720062256,"tz":"America/Metlakatla"},{"icao":"FQAG","iata":"ANO","name":"Angoche Airport","city":"Angoche","country":"MZ","lat":-16.1818695068,"lon":39.9452171326,"tz":"Africa/Maputo"},{"icao":"KANP","iata":"ANP","name":"Lee Airport","city":"Annapolis","country":"US","lat":38.9429016113,"lon":-76.568397522,"tz":"America/New_York"},{"icao":"KANQ","iata":"ANQ","name":"Tri State Steuben County Airport","city":"Angola","country":"US","lat":41.6397018433,"lon":-85.0835037231,"tz":"America/Indiana/Indianapolis"},{"icao":"EBAW","iata":"ANR","name":"Antwerp International Airport (Deurne)","city":"Antwerp","country":"BE","lat":51.1893997192,"lon":4.4602799416,"tz":"Europe/Brussels"},{"icao":"SPHY","iata":"ANS","name":"Andahuaylas Airport","city":"Andahuaylas","country":"PE","lat":-13.7063999176,"lon":-73.350402832,"tz":"America/Lima"},{"icao":"TAPA","iata":"ANU","name":"V.C. Bird International Airport","city":"St. George","country":"AG","lat":17.1367,"lon":-61.792702,"tz":"America/Antigua"},{"icao":"PANV","iata":"ANV","name":"Anvik Airport","city":"Anvik","country":"US","lat":62.64670181,"lon":-160.1909943,"tz":"America/Anchorage"},{"icao":"KANW","iata":"ANW","name":"Ainsworth Municipal Airport","city":"Ainsworth","country":"US","lat":42.5792007446,"lon":-99.9929962158,"tz":"America/Chicago"},{"icao":"ENAN","iata":"ANX","name":"Andoya Airport","city":"Andenes","country":"NO","lat":69.2925033569,"lon":16.1441993713,"tz":"Europe/Oslo"},{"icao":"KANY","iata":"ANY","name":"Anthony Municipal Airport","city":"Anthony","country":"US","lat":37.1585006714,"lon":-98.0795974731,"tz":"America/Chicago"},{"icao":"EDAC","iata":"AOC","name":"Altenburg-Nobitz Airport","city":"Altenburg","country":"DE","lat":50.9819450378,"lon":12.5063886642,"tz":"Europe/Berlin"},{"icao":"LTBY","iata":"AOE","name":"Anadolu University Airport","city":"Eskisehir","country":"TR","lat":39.8098983765,"lon":30.5193996429,"tz":"Europe/Istanbul"},{"icao":"ZYAS","iata":"AOG","name":"Anshan Air Base","city":"Anshan","country":"CN","lat":41.1053009033,"lon":122.8539962769,"tz":"Asia/Shanghai"},{"icao":"KAOH","iata":"AOH","name":"Lima Allen County Airport","city":"Lima","country":"US","lat":40.7069015503,"lon":-84.0267028809,"tz":"America/New_York"},{"icao":"LIPY","iata":"AOI","name":"Ancona / Falconara Airport","city":"Ancona","country":"IT","lat":43.6162986755,"lon":13.3622999191,"tz":"Europe/Rome"},{"icao":"RJSA","iata":"AOJ","name":"Aomori Airport","city":"Aomori","country":"JP","lat":40.7346992493,"lon":140.6909942627,"tz":"Asia/Tokyo"},{"icao":"LGKP","iata":"AOK","name":"Karpathos Airport","city":"Karpathos Island","country":"GR","lat":35.4213981628,"lon":27.1459999084,"tz":"Europe/Athens"},{"icao":"SARL","iata":"AOL","name":"Paso De Los Libres Airport","city":"Paso de los Libres","country":"AR","lat":-29.6894,"lon":-57.1521,"tz":"America/Argentina/Cordoba"},{"icao":"OOAD","iata":"AOM","name":"Adam Airport","city":"Adam","country":"OM","lat":22.493056,"lon":57.381944,"tz":"Asia/Muscat"},{"icao":"KAOO","iata":"AOO","name":"Altoona Blair County Airport","city":"Altoona","country":"US","lat":40.29639816,"lon":-78.31999969,"tz":"America/New_York"},{"icao":"SPAS","iata":"AOP","name":"Alferez FAP Alfredo Vladimir Sara Bauer Airport","city":"Andoas","country":"PE","lat":-2.7961299419,"lon":-76.4665985107,"tz":"America/Lima"},{"icao":"WMKA","iata":"AOR","name":"Sultan Abdul Halim Airport","city":"Alor Satar","country":"MY","lat":6.1896700859,"lon":100.3980026245,"tz":"Asia/Kuala_Lumpur"},{"icao":"LIMW","iata":"AOT","name":"Aosta Airport","city":"Aosta","country":"IT","lat":45.7384986877,"lon":7.3687200546,"tz":"Europe/Rome"},{"icao":"VLAP","iata":"AOU","name":"Attopeu Airport","city":"Attopeu","country":"LA","lat":14.814715357,"lon":106.821699142,"tz":"Asia/Vientiane"},{"icao":"OIBI","iata":"AOY","name":"Asaloyeh Airport","city":"Asaloyeh","country":"IR","lat":27.4813995361,"lon":52.6155014038,"tz":"Asia/Tehran"},{"icao":"KAPA","iata":"APA","name":"Centennial Airport","city":"Denver","country":"US","lat":39.57009888,"lon":-104.848999,"tz":"America/Denver"},{"icao":"SLAP","iata":"APB","name":"Apolo Airport","city":"Apolo","country":"BO","lat":-14.7356004715,"lon":-68.4119033813,"tz":"America/La_Paz"},{"icao":"KAPC","iata":"APC","name":"Napa County Airport","city":"Napa","country":"US","lat":38.2131996155,"lon":-122.28099823,"tz":"America/Los_Angeles"},{"icao":"SPAO","iata":"APE","name":"San Juan Aposento Airport","city":"San Juan Aposento","country":"PE","lat":-15.3538999557,"lon":-75.167098999,"tz":"America/Lima"},{"icao":"KAPF","iata":"APF","name":"Naples Municipal Airport","city":"Naples","country":"US","lat":26.1525993347,"lon":-81.7752990723,"tz":"America/New_York"},{"icao":"KAPG","iata":"APG","name":"Phillips Army Air Field","city":"Aberdeen Proving Grounds(Aberdeen)","country":"US","lat":39.46620178,"lon":-76.16880035,"tz":"America/New_York"},{"icao":"KAPH","iata":"APH","name":"A P Hill Aaf (Fort A P Hill) Airport","city":"Fort A. P. Hill","country":"US","lat":38.06890106,"lon":-77.31829834,"tz":"America/New_York"},{"icao":"SKAP","iata":"API","name":"Gomez Nino Apiay Air Base","city":"Apiay","country":"CO","lat":4.07607,"lon":-73.5627,"tz":"America/Bogota"},{"icao":"ZUPL","iata":"APJ","name":"Ali Pulan Airport","city":"Burang","country":"CN","lat":30.390976,"lon":81.138039,"tz":"Asia/Shanghai"},{"icao":"NTGD","iata":"APK","name":"Apataki Airport","city":"Apataki","country":"PF","lat":-15.5735998154,"lon":-146.4149932861,"tz":"Pacific/Tahiti"},{"icao":"FQNP","iata":"APL","name":"Nampula Airport","city":"Nampula","country":"MZ","lat":-15.1056003571,"lon":39.2817993164,"tz":"Africa/Maputo"},{"icao":"KAPN","iata":"APN","name":"Alpena County Regional Airport","city":"Alpena","country":"US","lat":45.0780983,"lon":-83.56030273,"tz":"America/Detroit"},{"icao":"SKLC","iata":"APO","name":"Antonio Roldan Betancourt Airport","city":"Carepa","country":"CO","lat":7.81196,"lon":-76.7164,"tz":"America/Bogota"},{"icao":"SNAL","iata":"APQ","name":"Arapiraca Airport","city":"Arapiraca","country":"BR","lat":-9.7753601074,"lon":-36.6291999817,"tz":"America/Maceio"},{"icao":"SWNS","iata":"APS","name":"Anapolis Airport","city":"Anapolis","country":"BR","lat":-16.3623008728,"lon":-48.9271011353,"tz":"America/Sao_Paulo"},{"icao":"KAPT","iata":"APT","name":"Marion County Brown Field","city":"Jasper","country":"US","lat":35.0606994629,"lon":-85.5852966309,"tz":"America/Chicago"},{"icao":"SSAP","iata":"APU","name":"Apucarana Airport","city":"Apucarana","country":"BR","lat":-23.609500885,"lon":-51.3844985962,"tz":"America/Sao_Paulo"},{"icao":"KAPV","iata":"APV","name":"Apple Valley Airport","city":"Apple Valley","country":"US","lat":34.5752983093,"lon":-117.185997009,"tz":"America/Los_Angeles"},{"icao":"NSFA","iata":"APW","name":"Faleolo International Airport","city":"Apia","country":"WS","lat":-13.8299999237,"lon":-172.0079956055,"tz":"Pacific/Apia"},{"icao":"SSOG","iata":"APX","name":"Arapongas Airport","city":"Arapongas","country":"BR","lat":-23.3528995514,"lon":-51.4916992188,"tz":"America/Sao_Paulo"},{"icao":"SNAI","iata":"APY","name":"Alto Parnaiba Airport","city":"Alto Parnaiba","country":"BR","lat":-9.0836105347,"lon":-45.9505577087,"tz":"America/Fortaleza"},{"icao":"SAHZ","iata":"APZ","name":"Zapala Airport","city":"Zapala","country":"AR","lat":-38.9754981995,"lon":-70.1136016846,"tz":"America/Argentina/Salta"},{"icao":"SBAQ","iata":"AQA","name":"Araraquara Airport","city":"Araraquara","country":"BR","lat":-21.8120002747,"lon":-48.1329994202,"tz":"America/Sao_Paulo"},{"icao":"MGQC","iata":"AQB","name":"Santa Cruz del Quiche Airport","city":"Santa Cruz del Quiche","country":"GT","lat":15.0122003555,"lon":-91.1505966187,"tz":"America/Guatemala"},{"icao":"ZSAQ","iata":"AQG","name":"Anqing Airport","city":"Anqing","country":"CN","lat":30.5821990967,"lon":117.0500030518,"tz":"Asia/Shanghai"},{"icao":"OEPA","iata":"AQI","name":"Hafr Al Batin Airport","city":"Qaisumah","country":"SA","lat":28.3351993561,"lon":46.1250991821,"tz":"Asia/Riyadh"},{"icao":"OJAQ","iata":"AQJ","name":"Aqaba King Hussein International Airport","city":"Aqaba","country":"JO","lat":29.6116008759,"lon":35.0181007385,"tz":"Asia/Amman"},{"icao":"SWNI","iata":"AQM","name":"Nova Vida Airport","city":"Ariquemes","country":"BR","lat":-10.1780557632,"lon":-62.8255577087,"tz":"America/Porto_Velho"},{"icao":"SPQU","iata":"AQP","name":"Rodriguez Ballon International Airport","city":"Arequipa","country":"PE","lat":-16.3411006927,"lon":-71.5830993652,"tz":"America/Lima"},{"icao":"KARA","iata":"ARA","name":"Acadiana Regional Airport","city":"New Iberia","country":"US","lat":30.0377998352,"lon":-91.8839035034,"tz":"America/Chicago"},{"icao":"KARB","iata":"ARB","name":"Ann Arbor Municipal Airport","city":"Ann Arbor","country":"US","lat":42.2229995728,"lon":-83.7455978394,"tz":"America/Detroit"},{"icao":"PARC","iata":"ARC","name":"Arctic Village Airport","city":"Arctic Village","country":"US","lat":68.1147003174,"lon":-145.578994751,"tz":"America/Anchorage"},{"icao":"WATM","iata":"ARD","name":"Mali Airport","city":"Alor Island","country":"ID","lat":-8.1323404312,"lon":124.5970001221,"tz":"Asia/Makassar"},{"icao":"TJAB","iata":"ARE","name":"Antonio Nery Juarbe Pol Airport","city":"Arecibo","country":"PR","lat":18.4500007629,"lon":-66.6753005981,"tz":"America/Puerto_Rico"},{"icao":"KARG","iata":"ARG","name":"Walnut Ridge Regional Airport","city":"Walnut Ridge","country":"US","lat":36.1246667,"lon":-90.9251111,"tz":"America/Chicago"},{"icao":"ULAA","iata":"ARH","name":"Talagi Airport","city":"Archangelsk","country":"RU","lat":64.6003036499,"lon":40.7167015076,"tz":"Europe/Moscow"},{"icao":"SCAR","iata":"ARI","name":"Chacalluta Airport","city":"Arica","country":"CL","lat":-18.3484992981,"lon":-70.3386993408,"tz":"America/Lima"},{"icao":"WAJA","iata":"ARJ","name":"Arso Airport","city":"Arso-Papua Island","country":"ID","lat":-2.9333329201,"lon":140.7833404541,"tz":"Asia/Jayapura"},{"icao":"HTAR","iata":"ARK","name":"Arusha Airport","city":"Arusha","country":"TZ","lat":-3.3677899837,"lon":36.6333007813,"tz":"Africa/Dar_es_Salaam"},{"icao":"DFER","iata":"ARL","name":"Arly Airport","city":"Arly","country":"BF","lat":11.5970001221,"lon":1.4830000401,"tz":"Africa/Ouagadougou"},{"icao":"YARM","iata":"ARM","name":"Armidale Airport","city":"Armidale","country":"AU","lat":-30.5280990601,"lon":151.617004395,"tz":"Australia/Sydney"},{"icao":"ESSA","iata":"ARN","name":"Stockholm-Arlanda Airport","city":"Stockholm","country":"SE","lat":59.6519012451,"lon":17.9186000824,"tz":"Europe/Stockholm"},{"icao":"SAVR","iata":"ARR","name":"D. Casimiro Szlapelis Airport","city":"Alto Rio Senguerr","country":"AR","lat":-45.0135993958,"lon":-70.8122024536,"tz":"America/Argentina/Catamarca"},{"icao":"SWEC","iata":"ARS","name":"Estancia das Cascatas Airport","city":"Aragarcas","country":"BR","lat":-15.8966999054,"lon":-52.0956001282,"tz":"America/Cuiaba"},{"icao":"KART","iata":"ART","name":"Watertown International Airport","city":"Watertown","country":"US","lat":43.9919013977,"lon":-76.021697998,"tz":"America/New_York"},{"icao":"SBAU","iata":"ARU","name":"Aracatuba Airport","city":"Aracatuba","country":"BR","lat":-21.1413002014,"lon":-50.4247016907,"tz":"America/Sao_Paulo"},{"icao":"KARV","iata":"ARV","name":"Lakeland-Noble F. Lee Memorial field","city":"Minocqua-Woodruff","country":"US","lat":45.92789841,"lon":-89.73090363,"tz":"America/Chicago"},{"icao":"LRAR","iata":"ARW","name":"Arad International Airport","city":"Arad","country":"RO","lat":46.1766014099,"lon":21.2619991302,"tz":"Europe/Bucharest"},{"icao":"YARA","iata":"ARY","name":"Ararat Airport","city":"","country":"AU","lat":-37.3093986511,"lon":142.9889984131,"tz":"Australia/Melbourne"},{"icao":"FNZE","iata":"ARZ","name":"N'zeto Airport","city":"N'zeto","country":"AO","lat":-7.2594399452,"lon":12.8631000519,"tz":"Africa/Luanda"},{"icao":"HHSB","iata":"ASA","name":"Assab International Airport","city":"Asab","country":"ER","lat":13.0718002319,"lon":42.6450004578,"tz":"Africa/Asmara"},{"icao":"UTAA","iata":"ASB","name":"Ashgabat Airport","city":"Ashgabat","country":"TM","lat":37.9868011475,"lon":58.361000061,"tz":"Asia/Ashgabat"},{"icao":"SLAS","iata":"ASC","name":"Ascencion De Guarayos Airport","city":"Ascension de Guarayos","country":"BO","lat":-15.9302997589,"lon":-63.1567001343,"tz":"America/La_Paz"},{"icao":"MYAF","iata":"ASD","name":"Andros Town Airport","city":"","country":"BS","lat":24.6979007721,"lon":-77.7956008911,"tz":"America/Nassau"},{"icao":"KASE","iata":"ASE","name":"Aspen-Pitkin Co/Sardy Field","city":"Aspen","country":"US","lat":39.22320175,"lon":-106.8690033,"tz":"America/Denver"},{"icao":"URWA","iata":"ASF","name":"Astrakhan Airport","city":"Astrakhan","country":"RU","lat":46.2832984924,"lon":48.0063018799,"tz":"Europe/Astrakhan"},{"icao":"NZAS","iata":"ASG","name":"Ashburton Aerodrome","city":"","country":"NZ","lat":-43.903301239,"lon":171.7969970703,"tz":"Pacific/Auckland"},{"icao":"KASH","iata":"ASH","name":"Boire Field","city":"Nashua","country":"US","lat":42.7817001343,"lon":-71.5148010254,"tz":"America/New_York"},{"icao":"FHAW","iata":"ASI","name":"RAF Ascension Island","city":"Ascension Island","country":"SH","lat":-7.9696002007,"lon":-14.393699646,"tz":"Atlantic/St_Helena"},{"icao":"RJKA","iata":"ASJ","name":"Amami Airport","city":"Amami","country":"JP","lat":28.4305992126,"lon":129.7129974365,"tz":"Asia/Tokyo"},{"icao":"DIYO","iata":"ASK","name":"Yamoussoukro Airport","city":"Yamoussoukro","country":"CI","lat":6.9031701088,"lon":-5.3655800819,"tz":"Africa/Abidjan"},{"icao":"KASL","iata":"ASL","name":"Harrison County Airport","city":"Marshall","country":"US","lat":32.5205001831,"lon":-94.307800293,"tz":"America/Chicago"},{"icao":"HHAS","iata":"ASM","name":"Asmara International Airport","city":"Asmara","country":"ER","lat":15.2918996811,"lon":38.9107017517,"tz":"Africa/Asmara"},{"icao":"KASN","iata":"ASN","name":"Talladega Municipal Airport","city":"Talladega","country":"US","lat":33.5699005127,"lon":-86.0509033203,"tz":"America/Chicago"},{"icao":"HASO","iata":"ASO","name":"Asosa Airport","city":"Asosa","country":"ET","lat":10.0185003281,"lon":34.5862998962,"tz":"Africa/Addis_Ababa"},{"icao":"YBAS","iata":"ASP","name":"Alice Springs Airport","city":"Alice Springs","country":"AU","lat":-23.8066997528,"lon":133.9019927979,"tz":"Australia/Darwin"},{"icao":"KTMT","iata":"ASQ","name":"Austin Airport","city":"Austin","country":"US","lat":39.4679985046,"lon":-117.194999695,"tz":"America/Los_Angeles"},{"icao":"LTAU","iata":"ASR","name":"Kayseri Erkilet Airport","city":"Kayseri","country":"TR","lat":38.770401001,"lon":35.4953994751,"tz":"Europe/Istanbul"},{"icao":"KAST","iata":"AST","name":"Astoria Regional Airport","city":"Astoria","country":"US","lat":46.158000946,"lon":-123.878997803,"tz":"America/Los_Angeles"},{"icao":"SGAS","iata":"ASU","name":"Silvio Pettirossi International Airport","city":"Asuncion","country":"PY","lat":-25.2399997711,"lon":-57.5200004578,"tz":"America/Asuncion"},{"icao":"HKAM","iata":"ASV","name":"Amboseli Airport","city":"Amboseli National Park","country":"KE","lat":-2.6450500488,"lon":37.2531013489,"tz":"Africa/Nairobi"},{"icao":"HESN","iata":"ASW","name":"Aswan International Airport","city":"Aswan","country":"EG","lat":23.9643993378,"lon":32.8199996948,"tz":"Africa/Cairo"},{"icao":"KASX","iata":"ASX","name":"John F Kennedy Memorial Airport","city":"Ashland","country":"US","lat":46.54850006,"lon":-90.91899872,"tz":"America/Chicago"},{"icao":"KASY","iata":"ASY","name":"Ashley Municipal Airport","city":"Ashley","country":"US","lat":46.0238990784,"lon":-99.3526000977,"tz":"America/Chicago"},{"icao":"SPHZ","iata":"ATA","name":"Comandante FAP German Arias Graziani Airport","city":"Anta","country":"PE","lat":-9.3474397659,"lon":-77.5983963013,"tz":"America/Lima"},{"icao":"HSAT","iata":"ATB","name":"Atbara Airport","city":"Atbara","country":"SD","lat":17.7103443146,"lon":34.05701828,"tz":"Africa/Khartoum"},{"icao":"MYCA","iata":"ATC","name":"Arthur's Town Airport","city":"Arthur's Town","country":"BS","lat":24.6294002533,"lon":-75.6737976074,"tz":"America/Nassau"},{"icao":"AGAT","iata":"ATD","name":"Uru Harbour Airport","city":"Atoifi","country":"SB","lat":-8.8733301163,"lon":161.0110015869,"tz":"Pacific/Guadalcanal"},{"icao":"K80F","iata":"ATE","name":"Antlers Municipal Airport","city":"Antlers","country":"US","lat":34.1926002502,"lon":-95.6499023438,"tz":"America/Chicago"},{"icao":"SEAM","iata":"ATF","name":"Chachoan Airport","city":"Ambato","country":"EC","lat":-1.2120699883,"lon":-78.5746002197,"tz":"America/Guayaquil"},{"icao":"LGAV","iata":"ATH","name":"Eleftherios Venizelos International Airport","city":"Athens","country":"GR","lat":37.9364013672,"lon":23.9444999695,"tz":"Europe/Athens"},{"icao":"SUAG","iata":"ATI","name":"Artigas International Airport","city":"Artigas","country":"UY","lat":-30.4006996155,"lon":-56.507900238,"tz":"America/Montevideo"},{"icao":"FMME","iata":"ATJ","name":"Antsirabe Airport","city":"Antsirabe","country":"MG","lat":-19.8392214824,"lon":47.0637130737,"tz":"Indian/Antananarivo"},{"icao":"PATQ","iata":"ATK","name":"Atqasuk Edward Burnell Sr Memorial Airport","city":"Atqasuk","country":"US","lat":70.467300415,"lon":-157.4360046387,"tz":"America/Anchorage"},{"icao":"KATL","iata":"ATL","name":"Hartsfield Jackson Atlanta International Airport","city":"Atlanta","country":"US","lat":33.6366996765,"lon":-84.4281005859,"tz":"America/New_York"},{"icao":"SBHT","iata":"ATM","name":"Altamira Airport","city":"Altamira","country":"BR","lat":-3.2539100647,"lon":-52.2540016174,"tz":"America/Santarem"},{"icao":"KUNI","iata":"ATO","name":"Ohio University Snyder Field","city":"Athens/Albany","country":"US","lat":39.2109985352,"lon":-82.2313995361,"tz":"America/New_York"},{"icao":"AYAI","iata":"ATP","name":"Aitape Airport","city":"Aitape","country":"PG","lat":-3.1436111111,"lon":142.346805556,"tz":"Pacific/Port_Moresby"},{"icao":"VIAR","iata":"ATQ","name":"Sri Guru Ram Dass Jee International Airport Amritsar","city":"Amritsar","country":"IN","lat":31.7096004486,"lon":74.7973022461,"tz":"Asia/Kolkata"},{"icao":"GQPA","iata":"ATR","name":"Atar International Airport","city":"Atar","country":"MR","lat":20.5067996979,"lon":-13.0431995392,"tz":"Africa/Nouakchott"},{"icao":"KATS","iata":"ATS","name":"Artesia Municipal Airport","city":"Artesia","country":"US","lat":32.8525009155,"lon":-104.468002319,"tz":"America/Denver"},{"icao":"PAAT","iata":"ATU","name":"Casco Cove Coast Guard Station","city":"Attu","country":"US","lat":52.83254166,"lon":173.17555416,"tz":"America/Adak"},{"icao":"FTTI","iata":"ATV","name":"Ati Airport","city":"Ati","country":"TD","lat":13.2389001846,"lon":18.3132991791,"tz":"Africa/Ndjamena"},{"icao":"KATW","iata":"ATW","name":"Appleton International Airport","city":"Appleton","country":"US","lat":44.2580986023,"lon":-88.5190963745,"tz":"America/Chicago"},{"icao":"KATY","iata":"ATY","name":"Watertown Regional Airport","city":"Watertown","country":"US","lat":44.91400146,"lon":-97.15470123,"tz":"America/Chicago"},{"icao":"HEAT","iata":"ATZ","name":"Assiut International Airport","city":"Assiut","country":"EG","lat":27.0464992523,"lon":31.0119991302,"tz":"Africa/Cairo"},{"icao":"TNCA","iata":"AUA","name":"Queen Beatrix International Airport","city":"Oranjestad","country":"AW","lat":12.5013999939,"lon":-70.0151977539,"tz":"America/Aruba"},{"icao":"SKUC","iata":"AUC","name":"Santiago Perez Airport","city":"Arauca","country":"CO","lat":7.06888,"lon":-70.7369,"tz":"America/Bogota"},{"icao":"YAGD","iata":"AUD","name":"Augustus Downs Airport","city":"","country":"AU","lat":-18.5149993896,"lon":139.8780059814,"tz":"Australia/Brisbane"},{"icao":"LFLA","iata":"AUF","name":"Auxerre-Branches Airport","city":"Auxerre/Branches","country":"FR","lat":47.8502006531,"lon":3.49710989,"tz":"Europe/Paris"},{"icao":"KAUG","iata":"AUG","name":"Augusta State Airport","city":"Augusta","country":"US","lat":44.3205986023,"lon":-69.7973022461,"tz":"America/New_York"},{"icao":"OMAA","iata":"AUH","name":"Abu Dhabi International Airport","city":"Abu Dhabi","country":"AE","lat":24.4330005646,"lon":54.6511001587,"tz":"Asia/Dubai"},{"icao":"AYAT","iata":"AUJ","name":"Ambunti Airport","city":"Ambunti","country":"PG","lat":-4.2156666667,"lon":142.823166667,"tz":"Pacific/Port_Moresby"},{"icao":"PAUK","iata":"AUK","name":"Alakanuk Airport","city":"Alakanuk","country":"US","lat":62.6800422668,"lon":-164.659927368,"tz":"America/Nome"},{"icao":"KAUM","iata":"AUM","name":"Austin Municipal Airport","city":"Austin","country":"US","lat":43.66500092,"lon":-92.93340302,"tz":"America/Chicago"},{"icao":"KAUN","iata":"AUN","name":"Auburn Municipal Airport","city":"Auburn","country":"US","lat":38.95479965,"lon":-121.0820007,"tz":"America/Los_Angeles"},{"icao":"KAUO","iata":"AUO","name":"Auburn Opelika Robert G. Pitts Airport","city":"Auburn","country":"US","lat":32.61510086,"lon":-85.43399811,"tz":"America/Chicago"},{"icao":"NTMN","iata":"AUQ","name":"Hiva Oa-Atuona Airport","city":"","country":"PF","lat":-9.7687902451,"lon":-139.0110015869,"tz":"Pacific/Marquesas"},{"icao":"LFLW","iata":"AUR","name":"Aurillac Airport","city":"Aurillac","country":"FR","lat":44.8913993835,"lon":2.4219400883,"tz":"Europe/Paris"},{"icao":"KAUS","iata":"AUS","name":"Austin Bergstrom International Airport","city":"Austin","country":"US","lat":30.1944999695,"lon":-97.6698989868,"tz":"America/Chicago"},{"icao":"WPAT","iata":"AUT","name":"Atauro Airport","city":"Atauro","country":"TL","lat":-8.2105197906,"lon":125.6159973145,"tz":"Asia/Dili"},{"icao":"YAUR","iata":"AUU","name":"Aurukun Airport","city":"","country":"AU","lat":-13.3538999557,"lon":141.720993042,"tz":"Australia/Brisbane"},{"icao":"KAUW","iata":"AUW","name":"Wausau Downtown Airport","city":"Wausau","country":"US","lat":44.9262008667,"lon":-89.6266021729,"tz":"America/Chicago"},{"icao":"SWGN","iata":"AUX","name":"Araguaina Airport","city":"Araguaina","country":"BR","lat":-7.2278699875,"lon":-48.2405014038,"tz":"America/Araguaina"},{"icao":"NVVA","iata":"AUY","name":"Anelghowhat Airport","city":"Anelghowhat","country":"VU","lat":-20.2492008209,"lon":169.7709960938,"tz":"Pacific/Efate"},{"icao":"KARR","iata":"AUZ","name":"Aurora Municipal Airport","city":"Chicago/Aurora","country":"US","lat":41.771900177,"lon":-88.4757003784,"tz":"America/Chicago"},{"icao":"ZUAS","iata":"AVA","name":"Anshun Huangguoshu Airport","city":"Anshun","country":"CN","lat":26.2605555556,"lon":105.873333333,"tz":"Asia/Shanghai"},{"icao":"LIPA","iata":"AVB","name":"Aviano Air Base","city":"Aviano","country":"IT","lat":46.0318984985,"lon":12.5965003967,"tz":"Europe/Rome"},{"icao":"YAUV","iata":"AVG","name":"Auvergne Airport","city":"","country":"AU","lat":-15.6999998093,"lon":130,"tz":"Australia/Darwin"},{"icao":"MUCA","iata":"AVI","name":"Maximo Gomez Airport","city":"Ciego de Avila","country":"CU","lat":22.0270996094,"lon":-78.7895965576,"tz":"America/Havana"},{"icao":"ZMAH","iata":"AVK","name":"Arvaikheer Airport","city":"Arvaikheer","country":"MN","lat":46.2503013611,"lon":102.8020019531,"tz":"Asia/Ulaanbaatar"},{"icao":"KAVL","iata":"AVL","name":"Asheville Regional Airport","city":"Asheville","country":"US","lat":35.4361991882,"lon":-82.5418014526,"tz":"America/New_York"},{"icao":"LFMV","iata":"AVN","name":"Avignon-Caumont Airport","city":"Avignon/Caumont","country":"FR","lat":43.9072990417,"lon":4.9018301964,"tz":"Europe/Paris"},{"icao":"KAVO","iata":"AVO","name":"Avon Park Executive Airport","city":"Avon Park","country":"US","lat":27.59119987,"lon":-81.52780151,"tz":"America/New_York"},{"icao":"KAVP","iata":"AVP","name":"Wilkes Barre Scranton International Airport","city":"Wilkes-Barre/Scranton","country":"US","lat":41.3385009766,"lon":-75.7233963013,"tz":"America/New_York"},{"icao":"LPAR","iata":"AVR","name":"Alverca Airport","city":"Alverca","country":"PT","lat":38.885362,"lon":-9.028311,"tz":"Europe/Lisbon"},{"icao":"AGGJ","iata":"AVU","name":"Avu Avu Airport","city":"","country":"SB","lat":-9.8683333333,"lon":160.410555556,"tz":"Pacific/Guadalcanal"},{"icao":"YMAV","iata":"AVV","name":"Avalon Airport","city":"Melbourne","country":"AU","lat":-38.0393981934,"lon":144.468994141,"tz":"Australia/Melbourne"},{"icao":"KAVQ","iata":"AVW","name":"Marana Regional Airport","city":"Tucson","country":"US","lat":32.4095993042,"lon":-111.218002319,"tz":"America/Phoenix"},{"icao":"KAVX","iata":"AVX","name":"Catalina Airport","city":"Avalon","country":"US","lat":33.4048995972,"lon":-118.4160003662,"tz":"America/Los_Angeles"},{"icao":"HALA","iata":"AWA","name":"Awassa Airport","city":"Awassa","country":"ET","lat":7.0669999123,"lon":38.5,"tz":"Africa/Addis_Ababa"},{"icao":"AYAW","iata":"AWB","name":"Awaba Airport","city":"Awaba","country":"PG","lat":-8.0061101914,"lon":142.748352051,"tz":"Pacific/Port_Moresby"},{"icao":"NVVB","iata":"AWD","name":"Aniwa Airport","city":"Aniwa","country":"VU","lat":-19.2399997711,"lon":169.6049957275,"tz":"Pacific/Efate"},{"icao":"PWAK","iata":"AWK","name":"Wake Island Airfield","city":"Wake Island","country":"UM","lat":19.2821006775,"lon":166.6360015869,"tz":"Pacific/Wake"},{"icao":"KAWM","iata":"AWM","name":"West Memphis Municipal Airport","city":"West Memphis","country":"US","lat":35.1351013184,"lon":-90.2343978882,"tz":"America/Chicago"},{"icao":"YADS","iata":"AWN","name":"Alton Downs Airport","city":"","country":"AU","lat":-26.5333003998,"lon":139.266998291,"tz":"Australia/Adelaide"},{"icao":"YAUS","iata":"AWP","name":"Austral Downs Airport","city":"","country":"AU","lat":-20.5,"lon":137.75,"tz":"Australia/Darwin"},{"icao":"OIAW","iata":"AWZ","name":"Ahwaz Airport","city":"Ahwaz","country":"IR","lat":31.3374004364,"lon":48.7620010376,"tz":"Asia/Tehran"},{"icao":"TQPF","iata":"AXA","name":"Wallblake Airport","city":"The Valley","country":"AI","lat":18.2047996521,"lon":-63.0550994873,"tz":"America/Anguilla"},{"icao":"YAMC","iata":"AXC","name":"Aramac Airport","city":"","country":"AU","lat":-22.9666996002,"lon":145.2420043945,"tz":"Australia/Brisbane"},{"icao":"LGAL","iata":"AXD","name":"Dimokritos Airport","city":"Alexandroupolis","country":"GR","lat":40.8558998108,"lon":25.9563007355,"tz":"Europe/Athens"},{"icao":"SSXX","iata":"AXE","name":"Xanxere Airport","city":"Xanxere","country":"BR","lat":-26.8755569458,"lon":-52.3730545044,"tz":"America/Sao_Paulo"},{"icao":"ZBAL","iata":"AXF","name":"Alxa Left Banner Bayanhot Airport","city":"Bayanhot","country":"CN","lat":38.74831,"lon":105.58858,"tz":"Asia/Shanghai"},{"icao":"KAXA","iata":"AXG","name":"Algona Municipal Airport","city":"Algona","country":"US","lat":43.0778999329,"lon":-94.2720031738,"tz":"America/Chicago"},{"icao":"RJDA","iata":"AXJ","name":"Amakusa Airport","city":"","country":"JP","lat":32.4824981689,"lon":130.158996582,"tz":"Asia/Tokyo"},{"icao":"OYAT","iata":"AXK","name":"Ataq Airport","city":"","country":"YE","lat":14.5513000488,"lon":46.8261985779,"tz":"Asia/Aden"},{"icao":"YALX","iata":"AXL","name":"Alexandria Homestead Airport","city":"","country":"AU","lat":-19.0601997375,"lon":136.7100067139,"tz":"Australia/Darwin"},{"icao":"SKAR","iata":"AXM","name":"El Eden Airport","city":"Armenia","country":"CO","lat":4.45278,"lon":-75.7664,"tz":"America/Bogota"},{"icao":"KAXN","iata":"AXN","name":"Chandler Field","city":"Alexandria","country":"US","lat":45.8662986755,"lon":-95.3946990967,"tz":"America/Chicago"},{"icao":"MYAP","iata":"AXP","name":"Spring Point Airport","city":"Spring Point","country":"BS","lat":22.4417991638,"lon":-73.9709014893,"tz":"America/Nassau"},{"icao":"NTGU","iata":"AXR","name":"Arutua Airport","city":"","country":"PF","lat":-15.2482995987,"lon":-146.6170043945,"tz":"Pacific/Tahiti"},{"icao":"KAXS","iata":"AXS","name":"Altus Quartz Mountain Regional Airport","city":"Altus","country":"US","lat":34.6963996887,"lon":-99.3403015137,"tz":"America/Chicago"},{"icao":"RJSK","iata":"AXT","name":"Akita Airport","city":"Akita","country":"JP","lat":39.6156005859,"lon":140.2189941406,"tz":"Asia/Tokyo"},{"icao":"HAAX","iata":"AXU","name":"Axum Airport","city":"","country":"ET","lat":14.1468000412,"lon":38.7728004456,"tz":"Africa/Addis_Ababa"},{"icao":"KAXV","iata":"AXV","name":"Neil Armstrong Airport","city":"Wapakoneta","country":"US","lat":40.49340057,"lon":-84.29889679,"tz":"America/New_York"},{"icao":"KAXX","iata":"AXX","name":"Angel Fire Airport","city":"Angel Fire","country":"US","lat":36.422000885,"lon":-105.290000916,"tz":"America/Denver"},{"icao":"SKYA","iata":"AYG","name":"Yaguara Airport","city":"San Vicente Del Caguan","country":"CO","lat":1.54417,"lon":-73.9333,"tz":"America/Bogota"},{"icao":"VEAY","iata":"AYJ","name":"Ayodhya Airport","city":"Ayodhya","country":"IN","lat":26.748034,"lon":82.150781,"tz":"Asia/Kolkata"},{"icao":"UAUR","iata":"AYK","name":"Arkalyk North Airport","city":"Arkalyk","country":"KZ","lat":50.3185997009,"lon":66.952796936,"tz":"Asia/Qostanay"},{"icao":"YANL","iata":"AYL","name":"Anthony Lagoon Airport","city":"","country":"AU","lat":-18.018079031,"lon":135.535068512,"tz":"Australia/Darwin"},{"icao":"ZHAY","iata":"AYN","name":"Anyang Airport","city":"Anyang","country":"CN","lat":36.1338996887,"lon":114.34400177,"tz":"Asia/Shanghai"},{"icao":"SGAY","iata":"AYO","name":"Juan De Ayolas Airport","city":"Ayolas","country":"PY","lat":-27.3700008392,"lon":-56.8499984741,"tz":"America/Asuncion"},{"icao":"SPHO","iata":"AYP","name":"Coronel FAP Alfredo Mendivil Duarte Airport","city":"Ayacucho","country":"PE","lat":-13.154800415,"lon":-74.2043991089,"tz":"America/Lima"},{"icao":"YAYE","iata":"AYQ","name":"Ayers Rock Connellan Airport","city":"Ayers Rock","country":"AU","lat":-25.1861000061,"lon":130.9759979248,"tz":"Australia/Darwin"},{"icao":"YAYR","iata":"AYR","name":"Ayr Airport","city":"","country":"AU","lat":-19.584400177,"lon":147.328994751,"tz":"Australia/Brisbane"},{"icao":"KAYS","iata":"AYS","name":"Waycross Ware County Airport","city":"Waycross","country":"US","lat":31.2490997314,"lon":-82.3955001831,"tz":"America/New_York"},{"icao":"LTAI","iata":"AYT","name":"Antalya International Airport","city":"Antalya","country":"TR","lat":36.8987007141,"lon":30.8005008698,"tz":"Europe/Istanbul"},{"icao":"AYAY","iata":"AYU","name":"Aiyura Airport","city":"Aiyura Valley","country":"PG","lat":-6.3380555556,"lon":145.904166667,"tz":"Pacific/Port_Moresby"},{"icao":"SPAY","iata":"AYX","name":"Teniente General Gerardo Perez Pinedo Airport","city":"Atalaya","country":"PE","lat":-10.7291002274,"lon":-73.7665023804,"tz":"America/Lima"},{"icao":"KIWA","iata":"AZA","name":"Phoenix-Mesa-Gateway Airport","city":"Phoenix","country":"US","lat":33.30780029,"lon":-111.6549988,"tz":"America/Phoenix"},{"icao":"OIYY","iata":"AZD","name":"Shahid Sadooghi Airport","city":"Yazd","country":"IR","lat":31.9048995972,"lon":54.2765007019,"tz":"Asia/Tehran"},{"icao":"VEAH","iata":"AZH","name":"Azamgarh Airport","city":"Azamgarh","country":"IN","lat":26.153333,"lon":83.118333,"tz":"Asia/Kolkata"},{"icao":"OMAD","iata":"AZI","name":"Al Bateen Executive Airport","city":"","country":"AE","lat":24.4283008575,"lon":54.4580993652,"tz":"Asia/Dubai"},{"icao":"SWTU","iata":"AZL","name":"Fazenda Tucunare Airport","city":"Sapezal","country":"BR","lat":-13.4655278136,"lon":-58.8669347763,"tz":"America/Cuiaba"},{"icao":"UZFA","iata":"AZN","name":"Andijan Airport","city":"Andijan","country":"UZ","lat":40.7276992798,"lon":72.2939987183,"tz":"Asia/Tashkent"},{"icao":"KAZO","iata":"AZO","name":"Kalamazoo Battle Creek International Airport","city":"Kalamazoo","country":"US","lat":42.2349014282,"lon":-85.5521011353,"tz":"America/Detroit"},{"icao":"MMJC","iata":"AZP","name":"Atizapan De Zaragoza Airport","city":"","country":"MX","lat":19.5748004913,"lon":-99.2888031006,"tz":"America/Mexico_City"},{"icao":"DAUA","iata":"AZR","name":"Touat Cheikh Sidi Mohamed Belkebir Airport","city":"","country":"DZ","lat":27.837600708,"lon":-0.1864140034,"tz":"Africa/Algiers"},{"icao":"MDCY","iata":"AZS","name":"Samana El Catey International Airport","city":"Samana","country":"DO","lat":19.2670001984,"lon":-69.7419967651,"tz":"America/Santo_Domingo"},{"icao":"FNAM","iata":"AZZ","name":"Ambriz Airport","city":"Ambriz","country":"AO","lat":-7.8622198105,"lon":13.1161003113,"tz":"Africa/Luanda"},{"icao":"AYBL","iata":"BAA","name":"Bialla Airport","city":"Bialla","country":"PG","lat":-5.329445,"lon":151.006128,"tz":"Pacific/Port_Moresby"},{"icao":"KBAB","iata":"BAB","name":"Beale Air Force Base","city":"Marysville","country":"US","lat":39.136100769,"lon":-121.43699646,"tz":"America/Los_Angeles"},{"icao":"KBAD","iata":"BAD","name":"Barksdale Air Force Base","city":"Bossier City","country":"US","lat":32.5018005371,"lon":-93.6626968384,"tz":"America/Chicago"},{"icao":"LFMR","iata":"BAE","name":"Barcelonnette - Saint-Pons Airport","city":"Le Castellet","country":"FR","lat":44.3883018494,"lon":6.6102800369,"tz":"Europe/Paris"},{"icao":"KBAF","iata":"BAF","name":"Westfield-Barnes Regional Airport","city":"Westfield/Springfield","country":"US","lat":42.1577987671,"lon":-72.7155990601,"tz":"America/New_York"},{"icao":"RPUB","iata":"BAG","name":"Loakan Airport","city":"Baguio City","country":"PH","lat":16.3750991821,"lon":120.6200027466,"tz":"Asia/Manila"},{"icao":"OBBI","iata":"BAH","name":"Bahrain International Airport","city":"Manama","country":"BH","lat":26.2707996368,"lon":50.6335983276,"tz":"Asia/Bahrain"},{"icao":"MRBA","iata":"BAI","name":"Buenos Aires Airport","city":"Punta Arenas","country":"CR","lat":9.1636104584,"lon":-83.3299026489,"tz":"America/Costa_Rica"},{"icao":"LTCJ","iata":"BAL","name":"Batman Airport","city":"Batman","country":"TR","lat":37.9290008545,"lon":41.1166000366,"tz":"Europe/Istanbul"},{"icao":"KBAM","iata":"BAM","name":"Battle Mountain Airport","city":"Battle Mountain","country":"US","lat":40.5989990234,"lon":-116.8740005493,"tz":"America/Los_Angeles"},{"icao":"FZVR","iata":"BAN","name":"Basongo Airport","city":"Basongo","country":"CD","lat":-4.3169999123,"lon":20.4330005646,"tz":"Africa/Lubumbashi"},{"icao":"VTED","iata":"BAO","name":"Udorn Air Base","city":"Ban Mak Khaen","country":"TH","lat":17.3829994202,"lon":102.8000030518,"tz":"Asia/Bangkok"},{"icao":"SKBQ","iata":"BAQ","name":"Ernesto Cortissoz International Airport","city":"Barranquilla","country":"CO","lat":10.8896,"lon":-74.7808,"tz":"America/Bogota"},{"icao":"ZJQH","iata":"BAR","name":"Qionghai Boao Airport","city":"Qionghai","country":"CN","lat":19.140556,"lon":110.458889,"tz":"Asia/Shanghai"},{"icao":"AGGE","iata":"BAS","name":"Ballalae Airport","city":"Ballalae","country":"SB","lat":-6.990745,"lon":155.886656,"tz":"Pacific/Guadalcanal"},{"icao":"SBBT","iata":"BAT","name":"Chafei Amsei Airport","city":"Barretos","country":"BR","lat":-20.5844993591,"lon":-48.5941009521,"tz":"America/Sao_Paulo"},{"icao":"SBBU","iata":"BAU","name":"Bauru Airport","city":"Bauru","country":"BR","lat":-22.3449993134,"lon":-49.0537986755,"tz":"America/Sao_Paulo"},{"icao":"ZBOW","iata":"BAV","name":"Baotou Airport","city":"Baotou","country":"CN","lat":40.5600013733,"lon":109.9970016479,"tz":"Asia/Shanghai"},{"icao":"UNBB","iata":"BAX","name":"Barnaul Airport","city":"Barnaul","country":"RU","lat":53.3638000488,"lon":83.5384979248,"tz":"Asia/Barnaul"},{"icao":"LRBM","iata":"BAY","name":"Tautii Magheraus Airport","city":"Baia Mare","country":"RO","lat":47.6584014893,"lon":23.4699993134,"tz":"Europe/Bucharest"},{"icao":"SWBC","iata":"BAZ","name":"Barcelos Airport","city":"Barcelos","country":"BR","lat":-0.9812920094,"lon":-62.9196014404,"tz":"America/Manaus"},{"icao":"SCBA","iata":"BBA","name":"Balmaceda Airport","city":"Balmaceda","country":"CL","lat":-45.9160995483,"lon":-71.6894989014,"tz":"America/Santiago"},{"icao":"KBBB","iata":"BBB","name":"Benson Municipal Airport","city":"Benson","country":"US","lat":45.3319015503,"lon":-95.6505966187,"tz":"America/Chicago"},{"icao":"KBYY","iata":"BBC","name":"Bay City Municipal Airport","city":"Bay City","country":"US","lat":28.9733009338,"lon":-95.8635025024,"tz":"America/Chicago"},{"icao":"KBBD","iata":"BBD","name":"Curtis Field","city":"Brady","country":"US","lat":31.1793003082,"lon":-99.3238983154,"tz":"America/Chicago"},{"icao":"YBBE","iata":"BBE","name":"Big Bell Airport","city":"Big Bell","country":"AU","lat":-27.3285999298,"lon":117.672996521,"tz":"Australia/Perth"},{"icao":"NGTU","iata":"BBG","name":"Butaritari Atoll Airport","city":"Butaritari Atoll","country":"KI","lat":3.0858299732,"lon":172.8110046387,"tz":"Pacific/Tarawa"},{"icao":"EDBH","iata":"BBH","name":"Barth Airport","city":"","country":"DE","lat":54.3375015259,"lon":12.6997003555,"tz":"Europe/Berlin"},{"icao":"VEBS","iata":"BBI","name":"Biju Patnaik Airport","city":"Bhubaneswar","country":"IN","lat":20.2444000244,"lon":85.8178024292,"tz":"Asia/Kolkata"},{"icao":"EDRB","iata":"BBJ","name":"Bitburg Airport","city":"Bitburg","country":"DE","lat":49.9452781677,"lon":6.5650000572,"tz":"Europe/Berlin"},{"icao":"FBKE","iata":"BBK","name":"Kasane Airport","city":"Kasane","country":"BW","lat":-17.8328990936,"lon":25.162399292,"tz":"Africa/Gaborone"},{"icao":"YLLE","iata":"BBL","name":"Ballera Airport","city":"","country":"AU","lat":-27.4083003998,"lon":141.8079986572,"tz":"Australia/Brisbane"},{"icao":"VDBG","iata":"BBM","name":"Battambang Airport","city":"Battambang","country":"KH","lat":13.0956001282,"lon":103.2239990234,"tz":"Asia/Phnom_Penh"},{"icao":"WBGZ","iata":"BBN","name":"Bario Airport","city":"Bario","country":"MY","lat":3.7338900566,"lon":115.4789962769,"tz":"Asia/Kuching"},{"icao":"HCMI","iata":"BBO","name":"Berbera Airport","city":"Berbera","country":"SO","lat":10.3892002106,"lon":44.9411010742,"tz":"Africa/Mogadishu"},{"icao":"EGHJ","iata":"BBP","name":"Bembridge Airport","city":"Bembridge","country":"GB","lat":50.6781005859,"lon":-1.1094399691,"tz":"Europe/London"},{"icao":"TAPH","iata":"BBQ","name":"Codrington Airport","city":"Codrington","country":"AG","lat":17.635799,"lon":-61.828602,"tz":"America/Antigua"},{"icao":"TFFB","iata":"BBR","name":"Baillif Airport","city":"Basse Terre","country":"GP","lat":16.013299942,"lon":-61.7421989441,"tz":"America/Guadeloupe"},{"icao":"EGLK","iata":"BBS","name":"Blackbushe Airport","city":"Yateley","country":"GB","lat":51.3238983154,"lon":-0.8475000262,"tz":"Europe/London"},{"icao":"FEFT","iata":"BBT","name":"Berberati Airport","city":"Berberati","country":"CF","lat":4.2215800285,"lon":15.7863998413,"tz":"Africa/Bangui"},{"icao":"LRBS","iata":"BBU","name":"Baneasa International Airport","city":"Bucharest","country":"RO","lat":44.503200531,"lon":26.1021003723,"tz":"Europe/Bucharest"},{"icao":"DIGN","iata":"BBV","name":"Nero-Mer Airport","city":"Grand-Bereby","country":"CI","lat":4.6434130669,"lon":-6.9239616394,"tz":"Africa/Abidjan"},{"icao":"KBBW","iata":"BBW","name":"Broken Bow Municipal Airport","city":"Broken Bow","country":"US","lat":41.4365005493,"lon":-99.6421966553,"tz":"America/Chicago"},{"icao":"KLOM","iata":"BBX","name":"Wings Field","city":"Philadelphia","country":"US","lat":40.1375007629,"lon":-75.2650985718,"tz":"America/New_York"},{"icao":"FEFM","iata":"BBY","name":"Bambari Airport","city":"Bambari","country":"CF","lat":5.8469400406,"lon":20.6474990845,"tz":"Africa/Bangui"},{"icao":"FLZB","iata":"BBZ","name":"Zambezi Airport","city":"Zambezi","country":"ZM","lat":-13.5361003876,"lon":23.108499527,"tz":"Africa/Lusaka"},{"icao":"MUBA","iata":"BCA","name":"Gustavo Rizo Airport","city":"Baracoa","country":"CU","lat":20.3652992249,"lon":-74.5062026978,"tz":"America/Havana"},{"icao":"KBCB","iata":"BCB","name":"Virginia Tech Montgomery Executive Airport","city":"Blacksburg","country":"US","lat":37.2075996399,"lon":-80.4077987671,"tz":"America/New_York"},{"icao":"RPVB","iata":"BCD","name":"Bacolod-Silay City International Airport","city":"Bacolod City","country":"PH","lat":10.7763996124,"lon":123.0149993896,"tz":"Asia/Manila"},{"icao":"KBCE","iata":"BCE","name":"Bryce Canyon Airport","city":"Bryce Canyon","country":"US","lat":37.706401825,"lon":-112.144996643,"tz":"America/Denver"},{"icao":"FEGU","iata":"BCF","name":"Bouca Airport","city":"Bouca","country":"CF","lat":6.5170001984,"lon":18.2670001984,"tz":"Africa/Bangui"},{"icao":"SYBE","iata":"BCG","name":"Bemichi Airport","city":"Bemichi","country":"GY","lat":7.6999998093,"lon":-59.1666603088,"tz":"America/Guyana"},{"icao":"WPEC","iata":"BCH","name":"Cakung Airport","city":"Baucau","country":"TL","lat":-8.4890298843,"lon":126.401000977,"tz":"Asia/Dili"},{"icao":"YBAR","iata":"BCI","name":"Barcaldine Airport","city":"Barcaldine","country":"AU","lat":-23.5652999878,"lon":145.307006836,"tz":"Australia/Brisbane"},{"icao":"MRBC","iata":"BCL","name":"Barra del Colorado Airport","city":"Pococi","country":"CR","lat":10.768699646,"lon":-83.5856018066,"tz":"America/Costa_Rica"},{"icao":"LRBC","iata":"BCM","name":"Bacau Airport","city":"Bacau","country":"RO","lat":46.521900177,"lon":26.9102993011,"tz":"Europe/Bucharest"},{"icao":"LEBL","iata":"BCN","name":"Barcelona International Airport","city":"Barcelona","country":"ES","lat":41.2971000671,"lon":2.0784599781,"tz":"Europe/Madrid"},{"icao":"HABC","iata":"BCO","name":"Baco Airport","city":"Baco","country":"ET","lat":5.7828698158,"lon":36.5620002747,"tz":"Africa/Addis_Ababa"},{"icao":"SWNK","iata":"BCR","name":"Novo Campo Airport","city":"Boca Do Acre","country":"BR","lat":-8.8345603943,"lon":-67.3124008179,"tz":"America/Manaus"},{"icao":"65LA","iata":"BCS","name":"Southern Seaplane Airport","city":"Belle Chasse","country":"US","lat":29.8661003113,"lon":-90.0222015381,"tz":"America/Chicago"},{"icao":"KBCT","iata":"BCT","name":"Boca Raton Airport","city":"Boca Raton","country":"US","lat":26.3784999847,"lon":-80.1076965332,"tz":"America/New_York"},{"icao":"UWUB","iata":"BCX","name":"Beloretsk Airport","city":"Beloretsk","country":"RU","lat":53.9380989075,"lon":58.3400001526,"tz":"Asia/Yekaterinburg"},{"icao":"TXKF","iata":"BDA","name":"L.F. Wade International International Airport","city":"Hamilton","country":"BM","lat":32.3639984131,"lon":-64.6787033081,"tz":"Atlantic/Bermuda"},{"icao":"YBUD","iata":"BDB","name":"Bundaberg Airport","city":"Bundaberg","country":"AU","lat":-24.9039001465,"lon":152.319000244,"tz":"Australia/Brisbane"},{"icao":"SNBC","iata":"BDC","name":"Barra do Corda Airport","city":"Barra Do Corda","country":"BR","lat":-5.5025,"lon":-45.215833,"tz":"America/Fortaleza"},{"icao":"YBAU","iata":"BDD","name":"Badu Island Airport","city":"","country":"AU","lat":-10.1499996185,"lon":142.1734,"tz":"Australia/Brisbane"},{"icao":"KBDE","iata":"BDE","name":"Baudette International Airport","city":"Baudette","country":"US","lat":48.7284011841,"lon":-94.612197876,"tz":"America/Chicago"},{"icao":"3IS8","iata":"BDF","name":"Rinkenberger Restricted Landing Area","city":"Bradford","country":"US","lat":41.2308998108,"lon":-89.6156997681,"tz":"America/Chicago"},{"icao":"KBDG","iata":"BDG","name":"Blanding Municipal Airport","city":"Blanding","country":"US","lat":37.58330154,"lon":-109.4830017,"tz":"America/Denver"},{"icao":"OIBL","iata":"BDH","name":"Bandar Lengeh Airport","city":"Bandar Lengeh","country":"IR","lat":26.531999588,"lon":54.824798584,"tz":"Asia/Tehran"},{"icao":"FSSB","iata":"BDI","name":"Bird Island Airport","city":"Bird Island","country":"SC","lat":-3.72472,"lon":55.205299,"tz":"Indian/Mahe"},{"icao":"WAOO","iata":"BDJ","name":"Syamsudin Noor Airport","city":"Banjarmasin-Borneo Island","country":"ID","lat":-3.4423599243,"lon":114.7630004883,"tz":"Asia/Makassar"},{"icao":"DIBU","iata":"BDK","name":"Soko Airport","city":"Bondoukou","country":"CI","lat":8.0172195435,"lon":-2.7619400024,"tz":"Africa/Abidjan"},{"icao":"KBDL","iata":"BDL","name":"Bradley International Airport","city":"Hartford","country":"US","lat":41.9388999939,"lon":-72.6831970215,"tz":"America/New_York"},{"icao":"LTBG","iata":"BDM","name":"Bandirma Airport","city":"Bandirma","country":"TR","lat":40.3180007935,"lon":27.9776992798,"tz":"Europe/Istanbul"},{"icao":"OPTH","iata":"BDN","name":"Talhar Airport","city":"Badin","country":"PK","lat":24.8414993286,"lon":68.8384017944,"tz":"Asia/Karachi"},{"icao":"WICC","iata":"BDO","name":"Husein Sastranegara International Airport","city":"Bandung-Java Island","country":"ID","lat":-6.9006299973,"lon":107.5759963989,"tz":"Asia/Jakarta"},{"icao":"VNCG","iata":"BDP","name":"Bhadrapur Airport","city":"Bhadrapur","country":"NP","lat":26.5708007812,"lon":88.0795974731,"tz":"Asia/Kathmandu"},{"icao":"VABO","iata":"BDQ","name":"Vadodara Airport","city":"Vadodara","country":"IN","lat":22.3362007141,"lon":73.2263031006,"tz":"Asia/Kolkata"},{"icao":"KBDR","iata":"BDR","name":"Igor I Sikorsky Memorial Airport","city":"Bridgeport","country":"US","lat":41.1635017395,"lon":-73.1261978149,"tz":"America/New_York"},{"icao":"LIBR","iata":"BDS","name":"Brindisi / Casale Airport","city":"Brindisi","country":"IT","lat":40.6576004028,"lon":17.9470005035,"tz":"Europe/Rome"},{"icao":"FZFD","iata":"BDT","name":"Gbadolite Airport","city":"","country":"CD","lat":4.2532100677,"lon":20.9752998352,"tz":"Africa/Kinshasa"},{"icao":"ENDU","iata":"BDU","name":"Bardufoss Airport","city":"Malselv","country":"NO","lat":69.0558013916,"lon":18.5403995514,"tz":"Europe/Oslo"},{"icao":"FZRB","iata":"BDV","name":"Moba Airport","city":"Moba","country":"CD","lat":-7.0669999123,"lon":29.783000946,"tz":"Africa/Lubumbashi"},{"icao":"YBDF","iata":"BDW","name":"Bedford Downs Airport","city":"","country":"AU","lat":-17.286699295,"lon":127.462997437,"tz":"Australia/Perth"},{"icao":"K00F","iata":"BDX","name":"Broadus Airport","city":"Broadus","country":"US","lat":45.47249985,"lon":-105.4540024,"tz":"America/Denver"},{"icao":"KS05","iata":"BDY","name":"Bandon State Airport","city":"Bandon","country":"US","lat":43.08649826,"lon":-124.4079971,"tz":"America/Los_Angeles"},{"icao":"AYBG","iata":"BDZ","name":"Baindoung Airport","city":"","country":"PG","lat":-6.3472222222,"lon":146.942222222,"tz":"Pacific/Port_Moresby"},{"icao":"EGPL","iata":"BEB","name":"Benbecula Airport","city":"Balivanich","country":"GB","lat":57.481098175,"lon":-7.3627800941,"tz":"Europe/London"},{"icao":"KBEC","iata":"BEC","name":"Beech Factory Airport","city":"Wichita","country":"US","lat":37.6944999695,"lon":-97.2149963379,"tz":"America/Chicago"},{"icao":"KBED","iata":"BED","name":"Laurence G Hanscom Field","city":"Bedford","country":"US","lat":42.47000122,"lon":-71.28900146,"tz":"America/New_York"},{"icao":"MNBL","iata":"BEF","name":"Bluefields Airport","city":"Bluefileds","country":"NI","lat":11.9910001755,"lon":-83.7741012573,"tz":"America/Managua"},{"icao":"LYBE","iata":"BEG","name":"Belgrade Nikola Tesla Airport","city":"Belgrad","country":"RS","lat":44.8184013367,"lon":20.3090991974,"tz":"Europe/Belgrade"},{"icao":"KBEH","iata":"BEH","name":"Southwest Michigan Regional Airport","city":"Benton Harbor","country":"US","lat":42.1286010742,"lon":-86.4284973145,"tz":"America/Detroit"},{"icao":"HABE","iata":"BEI","name":"Beica Airport","city":"Beica","country":"ET","lat":9.3863897324,"lon":34.521900177,"tz":"Africa/Addis_Ababa"},{"icao":"WALK","iata":"BEJ","name":"Barau(Kalimaru) Airport","city":"Tanjung Redep-Borneo Island","country":"ID","lat":2.1554999352,"lon":117.431999207,"tz":"Asia/Makassar"},{"icao":"VIBY","iata":"BEK","name":"Bareilly Air Force Station","city":"","country":"IN","lat":28.4221000671,"lon":79.4507980347,"tz":"Asia/Kolkata"},{"icao":"SBBE","iata":"BEL","name":"Val de Cans/Julio Cezar Ribeiro International Airport","city":"Belem","country":"BR","lat":-1.3792500496,"lon":-48.4762992859,"tz":"America/Belem"},{"icao":"GMMD","iata":"BEM","name":"Beni Mellal Airport","city":"","country":"MA","lat":32.4000015259,"lon":-6.3333301544,"tz":"Africa/Casablanca"},{"icao":"HLLB","iata":"BEN","name":"Benina International Airport","city":"Benghazi","country":"LY","lat":32.0968017578,"lon":20.2695007324,"tz":"Africa/Tripoli"},{"icao":"YPEC","iata":"BEO","name":"Aeropelican Airport","city":"","country":"AU","lat":-33.0666999817,"lon":151.6479949951,"tz":"Australia/Sydney"},{"icao":"VOBI","iata":"BEP","name":"Bellary Airport","city":"Bellary","country":"IN","lat":15.1627998352,"lon":76.8827972412,"tz":"Asia/Kolkata"},{"icao":"EGXH","iata":"BEQ","name":"RAF Honington","city":"Thetford","country":"GB","lat":52.3426017761,"lon":0.7729390264,"tz":"Europe/London"},{"icao":"EDDB","iata":"BER","name":"Berlin Brandenburg Airport","city":"Berlin","country":"DE","lat":52.366667,"lon":13.503333,"tz":"Europe/Berlin"},{"icao":"LFRB","iata":"BES","name":"Brest Bretagne Airport","city":"Brest/Guipavas","country":"FR","lat":48.4478988647,"lon":-4.4185400009,"tz":"Europe/Paris"},{"icao":"PABE","iata":"BET","name":"Bethel Airport","city":"Bethel","country":"US","lat":60.77980042,"lon":-161.8379974,"tz":"America/Anchorage"},{"icao":"YBIE","iata":"BEU","name":"Bedourie Airport","city":"","country":"AU","lat":-24.3460998535,"lon":139.4600067139,"tz":"Australia/Brisbane"},{"icao":"LLBS","iata":"BEV","name":"Be'er Sheva (Teyman) Airport","city":"Beersheva","country":"IL","lat":31.2870006561,"lon":34.7229995728,"tz":"Asia/Jerusalem"},{"icao":"FQBR","iata":"BEW","name":"Beira Airport","city":"Beira","country":"MZ","lat":-19.7964000702,"lon":34.9076004028,"tz":"Africa/Maputo"},{"icao":"EGUB","iata":"BEX","name":"RAF Benson","city":"Benson","country":"GB","lat":51.6164016724,"lon":-1.0958299637,"tz":"Europe/London"},{"icao":"OLBA","iata":"BEY","name":"Beirut Rafic Hariri International Airport","city":"Beirut","country":"LB","lat":33.8208999634,"lon":35.4883995056,"tz":"Asia/Beirut"},{"icao":"NGBR","iata":"BEZ","name":"Beru Airport","city":"Beru","country":"KI","lat":-1.3547199965,"lon":176.0070037842,"tz":"Pacific/Tarawa"},{"icao":"SGBN","iata":"BFA","name":"Bahia Negra Airport","city":"Bahia Negra","country":"PY","lat":-20.2245998383,"lon":-58.1791992188,"tz":"America/Asuncion"},{"icao":"KBFD","iata":"BFD","name":"Bradford Regional Airport","city":"Bradford","country":"US","lat":41.8031005859,"lon":-78.6400985718,"tz":"America/New_York"},{"icao":"EDLI","iata":"BFE","name":"Bielefeld Airport","city":"Bielefeld","country":"DE","lat":51.9647216797,"lon":8.5444440842,"tz":"Europe/Berlin"},{"icao":"KBFF","iata":"BFF","name":"Western Neb. Rgnl/William B. Heilig Airport","city":"Scottsbluff","country":"US","lat":41.87400055,"lon":-103.5960007,"tz":"America/Denver"},{"icao":"KU07","iata":"BFG","name":"Bullfrog Basin Airport","city":"Glen Canyon Natl Rec Area","country":"US","lat":37.54579926,"lon":-110.7129974,"tz":"America/Denver"},{"icao":"SBBI","iata":"BFH","name":"Bacacheri Airport","city":"Curitiba","country":"BR","lat":-25.4050998688,"lon":-49.2319984436,"tz":"America/Sao_Paulo"},{"icao":"KBFI","iata":"BFI","name":"Boeing Field King County International Airport","city":"Seattle","country":"US","lat":47.5299987793,"lon":-122.3020019531,"tz":"America/Los_Angeles"},{"icao":"ZUBJ","iata":"BFJ","name":"Bijie Feixiong Airport","city":"Bijie","country":"CN","lat":27.266667,"lon":105.479167,"tz":"Asia/Shanghai"},{"icao":"KBKF","iata":"BFK","name":"Buckley Air Force Base","city":"Aurora","country":"US","lat":39.7016983032,"lon":-104.751998901,"tz":"America/Denver"},{"icao":"KBFL","iata":"BFL","name":"Meadows Field","city":"Bakersfield","country":"US","lat":35.43360138,"lon":-119.0569992,"tz":"America/Los_Angeles"},{"icao":"KBFM","iata":"BFM","name":"Mobile Downtown Airport","city":"Mobile","country":"US","lat":30.6268005371,"lon":-88.0680999756,"tz":"America/Chicago"},{"icao":"FABL","iata":"BFN","name":"J B M Hertzog International Airport","city":"Bloemfontain","country":"ZA","lat":-29.0926990509,"lon":26.302400589,"tz":"Africa/Johannesburg"},{"icao":"FVCZ","iata":"BFO","name":"Buffalo Range Airport","city":"Chiredzi","country":"ZW","lat":-21.0081005096,"lon":31.5785999298,"tz":"Africa/Harare"},{"icao":"KBVI","iata":"BFP","name":"Beaver County Airport","city":"Beaver Falls","country":"US","lat":40.7724990845,"lon":-80.3914031982,"tz":"America/New_York"},{"icao":"KBFR","iata":"BFR","name":"Virgil I Grissom Municipal Airport","city":"Bedford","country":"US","lat":38.84000015,"lon":-86.44539642,"tz":"America/Indiana/Indianapolis"},{"icao":"EGAA","iata":"BFS","name":"Belfast International Airport","city":"Belfast","country":"GB","lat":54.6575012207,"lon":-6.2158298492,"tz":"Europe/London"},{"icao":"KARW","iata":"BFT","name":"Beaufort County Airport","city":"Beaufort","country":"US","lat":32.4122009277,"lon":-80.6343994141,"tz":"America/New_York"},{"icao":"ZSBB","iata":"BFU","name":"Bengbu Airport","city":"Bengbu","country":"CN","lat":32.8477333333,"lon":117.320244444,"tz":"Asia/Shanghai"},{"icao":"VTUO","iata":"BFV","name":"Buri Ram Airport","city":"","country":"TH","lat":15.2294998169,"lon":103.2529983521,"tz":"Asia/Bangkok"},{"icao":"DAOS","iata":"BFW","name":"Sidi Bel Abbes Airport","city":"","country":"DZ","lat":35.1717987061,"lon":-0.5932750106,"tz":"Africa/Algiers"},{"icao":"FKKU","iata":"BFX","name":"Bafoussam Airport","city":"Bafoussam","country":"CM","lat":5.5369200707,"lon":10.3545999527,"tz":"Africa/Douala"},{"icao":"SKBG","iata":"BGA","name":"Palonegro Airport","city":"Bucaramanga","country":"CO","lat":7.1265,"lon":-73.1848,"tz":"America/Bogota"},{"icao":"FOGB","iata":"BGB","name":"Booue Airport","city":"Booue","country":"GA","lat":-0.1000000015,"lon":11.9499998093,"tz":"Africa/Libreville"},{"icao":"LPBG","iata":"BGC","name":"Braganca Airport","city":"","country":"PT","lat":41.85779953,"lon":-6.7071299553,"tz":"Europe/Lisbon"},{"icao":"KBGD","iata":"BGD","name":"Hutchinson County Airport","city":"Borger","country":"US","lat":35.7009010315,"lon":-101.393997192,"tz":"America/Chicago"},{"icao":"KBGE","iata":"BGE","name":"Decatur County Industrial Air Park","city":"Bainbridge","country":"US","lat":30.9715004,"lon":-84.63739777,"tz":"America/New_York"},{"icao":"FEFF","iata":"BGF","name":"Bangui M'Poko International Airport","city":"Bangui","country":"CF","lat":4.3984799385,"lon":18.5188007355,"tz":"Africa/Bangui"},{"icao":"LTCU","iata":"BGG","name":"Bingöl Airport","city":"Bingöl","country":"TR","lat":38.861111,"lon":40.5925,"tz":"Europe/Istanbul"},{"icao":"GQNE","iata":"BGH","name":"Abbaye Airport","city":"Boghe","country":"MR","lat":16.6333141327,"lon":-14.2000007629,"tz":"Africa/Nouakchott"},{"icao":"TBPB","iata":"BGI","name":"Sir Grantley Adams International Airport","city":"Bridgetown","country":"BB","lat":13.0746002197,"lon":-59.4925003052,"tz":"America/Barbados"},{"icao":"BIBF","iata":"BGJ","name":"Borgarfjordur eystri Airport","city":"Borgarfjordur eystri","country":"IS","lat":65.5164031982,"lon":-13.8050003052,"tz":"Atlantic/Reykjavik"},{"icao":"VNBL","iata":"BGL","name":"Baglung Airport","city":"Baglung","country":"NP","lat":28.2127990723,"lon":83.6662979126,"tz":"Asia/Kathmandu"},{"icao":"KBGM","iata":"BGM","name":"Greater Binghamton/Edwin A Link field","city":"Binghamton","country":"US","lat":42.20869827,"lon":-75.97979736,"tz":"America/New_York"},{"icao":"UESG","iata":"BGN","name":"Belaya Gora Airport","city":"Belaya Gora","country":"RU","lat":68.556944,"lon":146.234722,"tz":"Asia/Srednekolymsk"},{"icao":"ENBR","iata":"BGO","name":"Bergen Airport Flesland","city":"Bergen","country":"NO","lat":60.2933998108,"lon":5.2181401253,"tz":"Europe/Oslo"},{"icao":"PAGQ","iata":"BGQ","name":"Big Lake Airport","city":"Big Lake","country":"US","lat":61.5360984802,"lon":-149.8139953613,"tz":"America/Anchorage"},{"icao":"KBGR","iata":"BGR","name":"Bangor International Airport","city":"Bangor","country":"US","lat":44.8073997498,"lon":-68.8281021118,"tz":"America/New_York"},{"icao":"KBPG","iata":"BGS","name":"Big Spring Mc Mahon-Wrinkle Airport","city":"Big Spring","country":"US","lat":32.21260071,"lon":-101.5220032,"tz":"America/Chicago"},{"icao":"KE51","iata":"BGT","name":"Bagdad Airport","city":"Bagdad","country":"US","lat":34.5959014893,"lon":-113.1699981689,"tz":"America/Phoenix"},{"icao":"FEFG","iata":"BGU","name":"Bangassou Airport","city":"Bangassou","country":"CF","lat":4.7849998474,"lon":22.7810001373,"tz":"Africa/Bangui"},{"icao":"SSBG","iata":"BGV","name":"Aeroclube de Bento Goncalves Airport","city":"Bento Goncalves","country":"BR","lat":-29.1483325958,"lon":-51.5363883972,"tz":"America/Sao_Paulo"},{"icao":"ORBI","iata":"BGW","name":"Baghdad International Airport","city":"Baghdad","country":"IQ","lat":33.2625007629,"lon":44.2346000671,"tz":"Asia/Baghdad"},{"icao":"SBBG","iata":"BGX","name":"Comandante Gustavo Kraemer Airport","city":"Bage","country":"BR","lat":-31.390499115,"lon":-54.1122016907,"tz":"America/Sao_Paulo"},{"icao":"LIME","iata":"BGY","name":"Bergamo / Orio Al Serio Airport","city":"Bergamo","country":"IT","lat":45.6739006042,"lon":9.7041702271,"tz":"Europe/Rome"},{"icao":"LPBR","iata":"BGZ","name":"Braga Municipal Aerodrome","city":"Braga","country":"PT","lat":41.5871009827,"lon":-8.445139885,"tz":"Europe/Lisbon"},{"icao":"SESV","iata":"BHA","name":"Los Perales Airport","city":"Bahia de Caraquez","country":"EC","lat":-0.6081110239,"lon":-80.4027023315,"tz":"America/Guayaquil"},{"icao":"KBHB","iata":"BHB","name":"Hancock County-Bar Harbor Airport","city":"Bar Harbor","country":"US","lat":44.45000076,"lon":-68.3615036,"tz":"America/New_York"},{"icao":"EGAC","iata":"BHD","name":"George Best Belfast City Airport","city":"Belfast","country":"GB","lat":54.6180992126,"lon":-5.8724999428,"tz":"Europe/London"},{"icao":"NZWB","iata":"BHE","name":"Woodbourne Airport","city":"Blenheim","country":"NZ","lat":-41.5182991028,"lon":173.8699951172,"tz":"Pacific/Auckland"},{"icao":"SKCP","iata":"BHF","name":"Cupica Airport","city":"Bahia Solano","country":"CO","lat":6.691944,"lon":-77.477222,"tz":"America/Bogota"},{"icao":"MHBL","iata":"BHG","name":"Brus Laguna Airport","city":"Brus Laguna","country":"HN","lat":15.7630996704,"lon":-84.5436019897,"tz":"America/Tegucigalpa"},{"icao":"OEBH","iata":"BHH","name":"Bisha Airport","city":"","country":"SA","lat":19.9843997955,"lon":42.6208992004,"tz":"Asia/Riyadh"},{"icao":"SAZB","iata":"BHI","name":"Comandante Espora Airport","city":"Bahia Blanca","country":"AR","lat":-38.725,"lon":-62.1693,"tz":"America/Argentina/Buenos_Aires"},{"icao":"VABJ","iata":"BHJ","name":"Bhuj Airport","city":"Bhuj","country":"IN","lat":23.2877998352,"lon":69.6701965332,"tz":"Asia/Kolkata"},{"icao":"UZSB","iata":"BHK","name":"Bukhara Airport","city":"Bukhara","country":"UZ","lat":39.7750015259,"lon":64.4832992554,"tz":"Asia/Samarkand"},{"icao":"KBHM","iata":"BHM","name":"Birmingham-Shuttlesworth International Airport","city":"Birmingham","country":"US","lat":33.56290054,"lon":-86.75350189,"tz":"America/Chicago"},{"icao":"OYBN","iata":"BHN","name":"Beihan Airport","city":"","country":"YE","lat":14.781999588,"lon":45.7201004028,"tz":"Asia/Aden"},{"icao":"VABP","iata":"BHO","name":"Bhopal Airport","city":"Bhopal","country":"IN","lat":23.2875003815,"lon":77.3374023438,"tz":"Asia/Kolkata"},{"icao":"VNBJ","iata":"BHP","name":"Bhojpur Airport","city":"Bhojpur","country":"NP","lat":27.1473999023,"lon":87.0507965088,"tz":"Asia/Kathmandu"},{"icao":"YBHI","iata":"BHQ","name":"Broken Hill Airport","city":"Broken Hill","country":"AU","lat":-32.0013999939,"lon":141.472000122,"tz":"Australia/Broken_Hill"},{"icao":"VNBP","iata":"BHR","name":"Bharatpur Airport","city":"Bharatpur","country":"NP","lat":27.6781005859,"lon":84.429397583,"tz":"Asia/Kathmandu"},{"icao":"YBTH","iata":"BHS","name":"Bathurst Airport","city":"Bathurst","country":"AU","lat":-33.4094009399,"lon":149.651992798,"tz":"Australia/Sydney"},{"icao":"VABV","iata":"BHU","name":"Bhavnagar Airport","city":"Bhavnagar","country":"IN","lat":21.752199173,"lon":72.1852035522,"tz":"Asia/Kolkata"},{"icao":"OPBW","iata":"BHV","name":"Bahawalpur Airport","city":"Bahawalpur","country":"PK","lat":29.3481006622,"lon":71.7180023193,"tz":"Asia/Karachi"},{"icao":"OPBG","iata":"BHW","name":"Bhagatanwala Airport","city":"Bhagatanwala","country":"PK","lat":32.056098938,"lon":72.9484024048,"tz":"Asia/Karachi"},{"icao":"EGBB","iata":"BHX","name":"Birmingham International Airport","city":"Birmingham","country":"GB","lat":52.4538993835,"lon":-1.7480299473,"tz":"Europe/London"},{"icao":"ZGBH","iata":"BHY","name":"Beihai Airport","city":"Beihai","country":"CN","lat":21.5394001007,"lon":109.2939987183,"tz":"Asia/Shanghai"},{"icao":"LFKB","iata":"BIA","name":"Bastia-Poretta Airport","city":"Bastia/Poretta","country":"FR","lat":42.5527000427,"lon":9.4837303162,"tz":"Europe/Paris"},